timestamp,drone_x,drone_y,drone_z,drone_roll,drone_pitch,drone_yaw,target_x,target_y,target_z,drone_vx,drone_vy,drone_vz,target_vx,target_vy,target_vz,distance_error,velocity_error
0.0178538,0.0598685,-0.024722,1.20172,-0.00106422,-0.00426971,-0.000168086,1,0,1.2,-0.0366475,0.0230454,-0.00269852,0,0,0,0.940458,0.0433753
0.053794,0.0601417,-0.0246504,1.20148,-0.00125737,-0.0038027,-0.00016527,1,0,1.2,-0.037254,0.0239755,-0.00213889,0,0,0,0.940183,0.0443538
0.0855593,0.0611261,-0.0250812,1.20102,-0.00118774,-0.0036763,3.48893e-05,1,0,1.2,-0.0369794,0.0250001,-0.00231489,0,0,0,0.939209,0.0446972
0.11748,0.0619119,-0.0253378,1.20059,-0.000985105,-0.00396821,0.00044062,1,0,1.2,-0.0363114,0.0268142,-0.00267014,0,0,0,0.93843,0.0452178
0.153461,0.0625377,-0.0254709,1.2001,-0.000775037,-0.00382417,0.000596681,1,0,1.2,-0.0360159,0.0248866,-0.00346064,0,0,0,0.937808,0.0439143
0.185365,0.0629797,-0.0255468,1.19965,-0.000724146,-0.00282686,0.000734717,1,0,1.2,-0.0360192,0.0252466,-0.00250924,0,0,0,0.937369,0.0440576
0.217335,0.0633174,-0.0255431,1.19928,0.0022242,0.0031257,0.00102082,1,0,1.2,-0.0331892,0.0223646,0.0027445,0,0,0,0.937031,0.0401152
0.253241,0.0637481,-0.0255937,1.19916,0.0142659,0.0151002,0.00106104,1,0,1.2,-0.025056,0.0150328,0.00959843,0,0,0,0.936602,0.0307558
0.285299,0.0642119,-0.0257898,1.19913,0.0230336,0.0224423,0.00109799,1,0,1.2,-0.0164186,0.00855243,0.0124802,0,0,0,0.936144,0.0223264
0.317365,0.0648528,-0.0261785,1.19922,0.0399607,0.0363125,0.00104244,1,0,1.2,-0.00720399,-0.00132989,0.013713,0,0,0,0.935514,0.0155471
0.354127,0.0658091,-0.0269179,1.19928,0.0540223,0.0473853,0.000798686,1,0,1.2,0.0081338,-0.016023,0.0150809,0,0,0,0.934579,0.023459
0.385902,0.0672211,-0.0281512,1.19934,0.0597794,0.0519986,0.000535294,1,0,1.2,0.0254353,-0.0347137,0.0165215,0,0,0,0.933204,0.0460972
0.417765,0.0690494,-0.0298969,1.1994,0.0679865,0.0579303,-0.000360216,1,0,1.2,0.0404639,-0.0518873,0.0177105,0,0,0,0.931431,0.0681416
0.45375,0.0723986,-0.0326739,1.19922,0.0715455,0.0593825,-0.00157894,1,0,1.2,0.0610006,-0.0746819,0.0182337,0,0,0,0.928177,0.0981373
0.486201,0.0760686,-0.0353302,1.19885,0.0716577,0.0589307,-0.00221987,1,0,1.2,0.0773886,-0.0918983,0.0173756,0,0,0,0.924607,0.121393
0.518202,0.0800842,-0.0385481,1.19843,0.0687773,0.0544956,-0.00328362,1,0,1.2,0.0925899,-0.1125,0.0181577,0,0,0,0.920724,0.146829
0.553982,0.0844154,-0.0424045,1.19797,0.0646331,0.0485555,-0.00437242,1,0,1.2,0.106785,-0.132563,0.0174285,0,0,0,0.916568,0.171114
0.586349,0.0890202,-0.0468629,1.19751,0.0631089,0.0466338,-0.004589,1,0,1.2,0.117517,-0.151659,0.0194111,0,0,0,0.912188,0.192841
0.618528,0.0938829,-0.0518658,1.19714,0.0612881,0.0429934,-0.00471616,1,0,1.2,0.130581,-0.167973,0.0210472,0,0,0,0.907605,0.213797
0.654394,0.100342,-0.0588621,1.19681,0.0621552,0.0414306,-0.00406342,1,0,1.2,0.143497,-0.188819,0.0239527,0,0,0,0.901587,0.238365
0.686132,0.105788,-0.0649952,1.19666,0.0622004,0.0404791,-0.00352343,1,0,1.2,0.153653,-0.203132,0.0244274,0,0,0,0.896577,0.255869
0.717974,0.111479,-0.0715397,1.1965,0.059682,0.036727,-0.00226534,1,0,1.2,0.163256,-0.216807,0.0244203,0,0,0,0.891403,0.272497
0.753867,0.117375,-0.078503,1.19641,0.0551843,0.0319418,0.000308995,1,0,1.2,0.171547,-0.231935,0.0235272,0,0,0,0.886116,0.289441
0.785724,0.123463,-0.0859079,1.19632,0.0525139,0.0297164,0.00204354,1,0,1.2,0.176913,-0.244767,0.0227038,0,0,0,0.880745,0.30286
0.817498,0.129683,-0.093698,1.19614,0.0458604,0.0248247,0.00538139,1,0,1.2,0.182254,-0.257222,0.0186468,0,0,0,0.875355,0.315797
0.853751,0.137945,-0.103291,1.19574,0.0397146,0.0203644,0.00963492,1,0,1.2,0.187708,-0.270282,0.0150342,0,0,0,0.868232,0.329413
0.885726,0.144932,-0.110634,1.19528,0.0369209,0.0185459,0.0127849,1,0,1.2,0.189826,-0.279805,0.0129287,0,0,0,0.862208,0.338366
0.917571,0.151936,-0.118323,1.19485,0.0336159,0.016606,0.0181723,1,0,1.2,0.190926,-0.287941,0.011868,0,0,0,0.856294,0.345693
0.953598,0.158912,-0.126292,1.19449,0.0293842,0.0137996,0.0243014,1,0,1.2,0.190644,-0.294252,0.0122498,0,0,0,0.850535,0.350827
0.985665,0.165871,-0.134506,1.19424,0.0264749,0.0118333,0.0278265,1,0,1.2,0.190653,-0.298127,0.0121479,0,0,0,0.844924,0.354085
1.01751,0.172755,-0.142838,1.19403,0.0177346,0.00542024,0.0359247,1,0,1.2,0.185939,-0.300183,0.010264,0,0,0,0.839507,0.353254
1.05343,0.181223,-0.153375,1.19388,0.00954777,-0.000924324,0.0434441,1,0,1.2,0.183262,-0.300579,0.00802334,0,0,0,0.833041,0.352132
1.08527,0.187876,-0.161789,1.19379,0.00369766,-0.00499741,0.048447,1,0,1.2,0.179017,-0.298215,0.00618163,0,0,0,0.828106,0.347875
1.1172,0.194351,-0.170172,1.19376,-0.00478284,-0.0103015,0.0570795,1,0,1.2,0.171998,-0.296725,0.00362037,0,0,0,0.823448,0.34299
1.15371,0.200617,-0.178464,1.19379,-0.0122435,-0.0144589,0.0668852,1,0,1.2,0.163332,-0.293306,0.000437567,0,0,0,0.819086,0.335717
1.18559,0.206604,-0.186585,1.19382,-0.0145881,-0.0154143,0.0719661,1,0,1.2,0.154533,-0.284814,2.41419e-05,0,0,0,0.815064,0.324036
1.21748,0.212304,-0.19445,1.19388,-0.0181715,-0.0167774,0.0826289,1,0,1.2,0.143708,-0.275296,0.000824294,0,0,0,0.811365,0.310549
1.25372,0.220086,-0.203955,1.1937,-0.0232085,-0.0184132,0.0936167,1,0,1.2,0.12945,-0.264555,0.0014909,0,0,0,0.806165,0.294532
1.28669,0.227147,-0.211353,1.19327,-0.0268311,-0.0198435,0.0994754,1,0,1.2,0.118716,-0.255837,0.0011259,0,0,0,0.80126,0.282041
1.31926,0.233709,-0.21847,1.19296,-0.0326554,-0.0224052,0.111456,1,0,1.2,0.110108,-0.246461,0.00150084,0,0,0,0.796856,0.269942
1.35456,0.239815,-0.22532,1.19275,-0.0310558,-0.0207363,0.124039,1,0,1.2,0.0994604,-0.237962,0.00410244,0,0,0,0.792908,0.257944
1.38736,0.245468,-0.231907,1.19266,-0.0276629,-0.0185268,0.130525,1,0,1.2,0.0917802,-0.227648,0.0053969,0,0,0,0.7894,0.245513
1.41819,0.250781,-0.238236,1.19263,-0.0177656,-0.0121104,0.144122,1,0,1.2,0.0856045,-0.221316,0.00946135,0,0,0,0.786218,0.237483
1.45401,0.25709,-0.245924,1.1926,-0.00246205,-0.00252355,0.157864,1,0,1.2,0.0801137,-0.217108,0.0150845,0,0,0,0.782591,0.231909
1.4859,0.261946,-0.252014,1.19269,0.00707065,0.00344001,0.165109,1,0,1.2,0.0795103,-0.216215,0.0216824,0,0,0,0.779929,0.231389
1.51784,0.266736,-0.258164,1.19293,0.0291601,0.016313,0.181298,1,0,1.2,0.0778942,-0.220211,0.0286704,0,0,0,0.777416,0.235335
1.55367,0.271534,-0.264436,1.19324,0.0430914,0.0236876,0.194855,1,0,1.2,0.0791594,-0.225514,0.0334285,0,0,0,0.775006,0.24133
1.58573,0.276439,-0.27091,1.19357,0.0481868,0.0260032,0.202579,1,0,1.2,0.0836454,-0.234557,0.0327042,0,0,0,0.772641,0.251164
1.61769,0.28153,-0.277673,1.19391,0.0554705,0.0287165,0.218241,1,0,1.2,0.0872688,-0.249164,0.0344027,0,0,0,0.770285,0.266236
1.65345,0.289596,-0.286764,1.19421,0.059495,0.0296856,0.234064,1,0,1.2,0.0926821,-0.268235,0.0360721,0,0,0,0.766121,0.286079
1.68539,0.297801,-0.294545,1.19431,0.0606017,0.03005,0.243939,1,0,1.2,0.0990006,-0.281997,0.0341957,0,0,0,0.761494,0.30082
1.71737,0.306077,-0.302661,1.19434,0.0596005,0.0286683,0.258597,1,0,1.2,0.103172,-0.297317,0.0320268,0,0,0,0.757077,0.316335
1.75373,0.314432,-0.311148,1.19431,0.0556856,0.0252358,0.275331,1,0,1.2,0.105104,-0.313539,0.0304177,0,0,0,0.752893,0.332083
1.78573,0.322829,-0.319983,1.19427,0.0530742,0.02324,0.283923,1,0,1.2,0.107826,-0.327531,0.0278952,0,0,0,0.748987,0.345949
1.81763,0.331273,-0.329138,1.19421,0.0466771,0.0183435,0.301669,1,0,1.2,0.106075,-0.340063,0.0235373,0,0,0,0.74536,0.357
1.85352,0.341799,-0.340936,1.19406,0.0383427,0.0123776,0.31955,1,0,1.2,0.10367,-0.353248,0.0189921,0,0,0,0.741284,0.368635
1.88547,0.350172,-0.350577,1.19397,0.0336557,0.0093766,0.328492,1,0,1.2,0.102495,-0.360054,0.0165277,0,0,0,0.738388,0.374723
1.91881,0.358526,-0.360314,1.19388,0.0261629,0.00557075,0.346495,1,0,1.2,0.100428,-0.365068,0.013273,0,0,0,0.735767,0.378862
1.95331,0.366811,-0.370136,1.19382,0.0226732,0.00593903,0.366637,1,0,1.2,0.0934006,-0.371955,0.0130261,0,0,0,0.733462,0.383723
1.98522,0.375041,-0.380067,1.19382,0.0224659,0.00690895,0.374132,1,0,1.2,0.0922548,-0.375618,0.0171795,0,0,0,0.73148,0.387162
2.01805,0.383163,-0.390033,1.19391,0.0219035,0.00856495,0.393471,1,0,1.2,0.0835761,-0.377747,0.0184559,0,0,0,0.72983,0.387322
2.05373,0.393833,-0.402117,1.19388,0.0185921,0.00720194,0.412648,1,0,1.2,0.0755519,-0.379472,0.0171698,0,0,0,0.727444,0.387301
2.08514,0.403063,-0.411382,1.19363,0.0161759,0.00530918,0.422598,1,0,1.2,0.0730552,-0.381989,0.0146198,0,0,0,0.724989,0.389187
2.11701,0.412107,-0.420697,1.19348,0.0116768,0.00304341,0.442701,1,0,1.2,0.0655766,-0.381836,0.0146764,0,0,0,0.722943,0.387704
2.15296,0.420897,-0.430067,1.19345,0.0075067,0.00127424,0.463405,1,0,1.2,0.0545411,-0.381364,0.0152654,0,0,0,0.72136,0.385547
2.1849,0.429367,-0.439472,1.19348,0.00444289,-0.000537436,0.474278,1,0,1.2,0.0472144,-0.377884,0.0139803,0,0,0,0.720277,0.381079
2.21692,0.437482,-0.448825,1.19354,-0.0060377,-0.00763008,0.495981,1,0,1.2,0.0337029,-0.371743,0.0112583,0,0,0,0.719661,0.373438
2.25306,0.447034,-0.460409,1.19379,-0.0211534,-0.0175255,0.51872,1,0,1.2,0.018535,-0.361492,0.00731679,0,0,0,0.719573,0.362041
2.28508,0.454127,-0.469483,1.19406,-0.0313503,-0.0232068,0.532559,1,0,1.2,0.005441,-0.347283,0.00720114,0,0,0,0.720019,0.3474
2.31703,0.460573,-0.478298,1.19446,-0.0488021,-0.0319691,0.55589,1,0,1.2,-0.0108726,-0.329915,0.00186698,0,0,0,0.720958,0.330099
2.35299,0.466315,-0.486765,1.19479,-0.0631327,-0.0378259,0.577521,1,0,1.2,-0.0284827,-0.306192,-0.00191504,0,0,0,0.722348,0.307519
2.38502,0.471208,-0.494824,1.19513,-0.0704503,-0.0398604,0.589617,1,0,1.2,-0.0440772,-0.281173,-0.000892262,0,0,0,0.724221,0.284609
2.41878,0.475294,-0.502462,1.19543,-0.0807014,-0.0411788,0.614332,1,0,1.2,-0.0616168,-0.256568,-0.002879,0,0,0,0.726502,0.263879
2.45446,0.481463,-0.511812,1.19553,-0.0775943,-0.0366345,0.639291,1,0,1.2,-0.0787596,-0.22628,-0.00272615,0,0,0,0.728596,0.23961
2.48631,0.487909,-0.519195,1.19525,-0.0698713,-0.0310686,0.654234,1,0,1.2,-0.0888927,-0.205866,-0.000809493,0,0,0,0.729262,0.22424
2.51865,0.493429,-0.526222,1.19501,-0.0533696,-0.0198699,0.677357,1,0,1.2,-0.0968783,-0.18875,0.00402916,0,0,0,0.730445,0.212198
2.55455,0.498259,-0.53297,1.19489,-0.0268975,-0.00459975,0.703582,1,0,1.2,-0.103723,-0.177069,0.00963551,0,0,0,0.732002,0.205438
2.5864,0.502641,-0.539491,1.19492,-0.0104813,0.00429186,0.716765,1,0,1.2,-0.100451,-0.171381,0.0160061,0,0,0,0.733787,0.199294
2.61829,0.50683,-0.545838,1.19507,0.0264639,0.0223356,0.746068,1,0,1.2,-0.0993522,-0.168941,0.0238669,0,0,0,0.73565,0.197438
2.65415,0.512144,-0.553658,1.19547,0.0522817,0.0334555,0.770233,1,0,1.2,-0.0889495,-0.178108,0.0307703,0,0,0,0.737943,0.201448
2.6868,0.516862,-0.559929,1.19589,0.0657905,0.0385445,0.783942,1,0,1.2,-0.076919,-0.197617,0.0352912,0,0,0,0.739567,0.214975
2.71825,0.522194,-0.566384,1.19638,0.0942163,0.0485618,0.81366,1,0,1.2,-0.0685642,-0.219254,0.0424523,0,0,0,0.741015,0.233614
2.75885,0.528216,-0.573019,1.19687,0.112134,0.0538396,0.837264,1,0,1.2,-0.0583151,-0.242554,0.0486347,0,0,0,0.742254,0.254162
2.78671,0.535056,-0.579854,1.19727,0.118706,0.055176,0.850209,1,0,1.2,-0.0445711,-0.271385,0.0510936,0,0,0,0.743244,0.279727
2.81878,0.542796,-0.586901,1.19748,0.12447,0.0550776,0.875558,1,0,1.2,-0.0353476,-0.301721,0.0501894,0,0,0,0.743972,0.307902
2.85452,0.553541,-0.595522,1.19733,0.119652,0.0508072,0.899917,1,0,1.2,-0.0229242,-0.339779,0.0473675,0,0,0,0.744297,0.34383
2.88741,0.562878,-0.60211,1.19678,0.114538,0.0478063,0.912073,1,0,1.2,-0.0127957,-0.367863,0.0430578,0,0,0,0.744058,0.370595
2.91966,0.573059,-0.608946,1.19611,0.10165,0.0407062,0.935841,1,0,1.2,-0.00851164,-0.394818,0.0364171,0,0,0,0.743713,0.396585
2.95548,0.584044,-0.616026,1.19547,0.0870567,0.03445,0.959436,1,0,1.2,-0.00657086,-0.421173,0.0316457,0,0,0,0.743322,0.422411
2.98729,0.595775,-0.623332,1.19482,0.0800163,0.0321164,0.971439,1,0,1.2,-0.0020115,-0.442772,0.0294777,0,0,0,0.742945,0.443757
3.01928,0.608032,-0.630761,1.19418,0.067109,0.0285102,0.995115,1,0,1.2,-0.00438545,-0.456219,0.0254208,0,0,0,0.742652,0.456948
3.05606,0.623877,-0.640056,1.19357,0.0505244,0.0237878,1.01909,1,0.000557407,1.2,-0.00545843,-0.46667,0.0215643,-7.77522e-06,0.0278978,0,0.742897,0.495068
3.08776,0.636791,-0.647438,1.19321,0.0396974,0.0201501,1.03082,0.999999,0.00223122,1.2,-0.00660738,-0.470212,0.0186216,-6.22683e-05,0.0558155,0,0.744336,0.526398
3.11967,0.649744,-0.654767,1.19296,0.0131367,0.0112911,1.05485,0.999997,0.00348639,1.2,-0.0128818,-0.468732,0.00896594,-0.000121623,0.0697703,0,0.74567,0.538728
3.15546,0.662639,-0.662,1.19281,-0.013408,0.00143233,1.07978,0.999988,0.00683606,1.2,-0.0231104,-0.463676,-0.00130943,-0.000333936,0.0976977,0,0.749131,0.561837
3.18733,0.67526,-0.669132,1.19281,-0.0252296,-0.00279367,1.09249,0.999968,0.011303,1.2,-0.0289825,-0.452938,-0.00479577,-0.000709974,0.125624,0,0.753975,0.579272
3.21917,0.687474,-0.676125,1.19284,-0.0438709,-0.009471,1.1177,0.999951,0.0139556,1.2,-0.0417475,-0.435572,-0.0135452,-0.000974044,0.139588,0,0.757565,0.576763
3.25516,0.70247,-0.683704,1.19263,-0.0558613,-0.0132001,1.14342,0.999899,0.0201011,1.2,-0.0569359,-0.409393,-0.0184703,-0.00168379,0.167523,0,0.764107,0.57985
3.28753,0.714306,-0.688598,1.19223,-0.0594374,-0.013927,1.15635,0.999813,0.0273547,1.2,-0.065584,-0.385969,-0.0197485,-0.00267306,0.195419,0,0.770819,0.585115
3.31948,0.725303,-0.693482,1.19183,-0.0625954,-0.0133368,1.18274,0.999752,0.0315265,1.2,-0.0782631,-0.360897,-0.0197577,-0.00330732,0.209786,0,0.775259,0.575924
3.3558,0.735474,-0.698309,1.1915,-0.0615194,-0.0108938,1.20916,0.999593,0.0403371,1.2,-0.0894678,-0.334868,-0.0184441,-0.00478658,0.237281,0,0.784493,0.578676
3.38776,0.744832,-0.703091,1.19113,-0.0594454,-0.00885691,1.22238,0.999365,0.050386,1.2,-0.0959568,-0.311685,-0.0166386,-0.00668254,0.26517,0,0.795357,0.583959
3.41983,0.753483,-0.707843,1.19086,-0.0519621,-0.0039882,1.25174,0.999221,0.0558298,1.2,-0.105573,-0.28962,-0.0146557,-0.00779436,0.27911,0,0.802289,0.577261
3.45543,0.763408,-0.713688,1.19052,-0.0442245,0.000430004,1.27575,0.998859,0.0675507,1.2,-0.112079,-0.265251,-0.0115281,-0.0103738,0.306967,0,0.816003,0.581301
3.48724,0.770749,-0.718302,1.19022,-0.0393154,0.00284081,1.28911,0.998384,0.0803901,1.2,-0.113755,-0.250027,-0.00998325,-0.0134684,0.334805,0,0.830555,0.593452
3.51915,0.777652,-0.722815,1.18997,-0.0291842,0.00693278,1.31552,0.998097,0.0872231,1.2,-0.116156,-0.234156,-0.00610402,-0.0152219,0.348702,0,0.839559,0.591565
3.55509,0.78416,-0.727197,1.18967,-0.0197938,0.0114166,1.34183,0.997412,0.101719,1.2,-0.117172,-0.22092,-0.00389206,-0.0191713,0.376458,0,0.85597,0.605375
3.58684,0.790426,-0.731417,1.18939,-0.0154152,0.0135691,1.355,0.996555,0.117338,1.2,-0.114773,-0.213224,-0.00472423,-0.023754,0.404184,0,0.873491,0.624098
3.6188,0.796514,-0.735539,1.18906,-0.00764086,0.0176369,1.3813,0.996052,0.125609,1.2,-0.114923,-0.205917,-0.00403157,-0.0263105,0.418099,0,0.884031,0.630289
3.65501,0.805588,-0.740082,1.18835,-0.000544191,0.0210272,1.40656,0.994894,0.142827,1.2,-0.111598,-0.201937,-0.0014255,-0.0319047,0.445619,0,0.903051,0.652443
3.68656,0.814515,-0.743097,1.18756,0.00286807,0.0227319,1.41906,0.993492,0.161213,1.2,-0.106485,-0.199583,-0.0013339,-0.0382639,0.473155,0,0.921935,0.676189
3.71847,0.823167,-0.745958,1.18683,0.00804853,0.0262292,1.44303,0.992693,0.170806,1.2,-0.101032,-0.199364,0.00136286,-0.0417325,0.486868,0,0.9324,0.68879
3.75476,0.831648,-0.748634,1.18622,0.0121369,0.030313,1.46629,0.990875,0.190835,1.2,-0.096293,-0.198663,0.00315121,-0.0492913,0.514229,0,0.952966,0.714447
3.78677,0.839989,-0.75112,1.18573,0.0135419,0.0326084,1.47781,0.988738,0.211946,1.2,-0.0885994,-0.200527,0.00418872,-0.0577031,0.541442,0,0.97459,0.742623
3.81872,0.848215,-0.753364,1.18533,0.016418,0.0369689,1.50052,0.98754,0.222903,1.2,-0.0824475,-0.201069,0.00611132,-0.0622412,0.554982,0,0.986267,0.756345
3.85456,0.858474,-0.755945,1.18536,0.0211357,0.0346354,1.52237,0.984856,0.245652,1.2,-0.0814591,-0.208954,0.0363927,-0.0720251,0.581959,0,1.00964,0.791805
3.88647,0.866819,-0.75802,1.1864,0.0273063,0.0248449,1.53281,0.981763,0.269473,1.2,-0.0833249,-0.217662,0.0621229,-0.0827728,0.608729,0,1.03399,0.828723
3.91843,0.875359,-0.760154,1.18808,0.0443885,-0.00734022,1.55334,0.980051,0.281773,1.2,-0.0848535,-0.226372,0.0823404,-0.088517,0.622019,0,1.04724,0.852385
3.95437,0.884161,-0.762475,1.19016,0.0599677,-0.0421329,1.5734,0.976265,0.307205,1.2,-0.0945125,-0.237784,0.0934414,-0.1008,0.648447,0,1.07368,0.891166
3.98639,0.893316,-0.765144,1.1922,0.0659313,-0.0570373,1.58342,0.971975,0.333637,1.2,-0.1074,-0.25154,0.0925017,-0.114125,0.674543,0,1.10162,0.930715
4.01884,0.902895,-0.768352,1.19403,0.0746456,-0.0808658,1.60535,0.969622,0.347258,1.2,-0.130297,-0.266936,0.0883388,-0.121209,0.68749,0,1.11762,0.958548
4.05462,0.915649,-0.772429,1.19525,0.0776604,-0.0897817,1.62369,0.964477,0.375275,1.2,-0.160653,-0.288606,0.0781108,-0.136229,0.713126,0,1.14875,1.00507
4.08675,0.926563,-0.775462,1.19519,0.0775165,-0.090486,1.63625,0.958709,0.404301,1.2,-0.184359,-0.306325,0.0685767,-0.152409,0.738376,0,1.18021,1.04744
4.11929,0.937976,-0.779273,1.19485,0.0750217,-0.0836549,1.65451,0.955575,0.419199,1.2,-0.211545,-0.322749,0.0582921,-0.160953,0.750852,0,1.19861,1.07637
4.15506,0.949908,-0.78376,1.19434,0.0684282,-0.0641953,1.67629,0.948781,0.449725,1.2,-0.235199,-0.335926,0.0503222,-0.178953,0.775453,0,1.2335,1.11394
4.18696,0.965427,-0.790116,1.19376,0.0656735,-0.0548559,1.68385,0.941237,0.481245,1.2,-0.252421,-0.35057,0.0476022,-0.198219,0.799571,0,1.27161,1.1524
4.21905,0.975013,-0.794202,1.19342,0.0570737,-0.0272577,1.70183,0.937169,0.497368,1.2,-0.264611,-0.357031,0.038513,-0.208335,0.81143,0,1.29214,1.17045
4.25505,0.991395,-0.801236,1.19305,0.0476261,0.00374376,1.71795,0.928421,0.530275,1.2,-0.271432,-0.366877,0.029699,-0.229519,0.834677,0,1.33302,1.20265
4.28733,1.00473,-0.806766,1.1929,0.0426462,0.020128,1.72545,0.918796,0.564111,1.2,-0.26455,-0.37376,0.0287137,-0.252039,0.857298,0,1.37359,1.23146
4.32007,1.01812,-0.811918,1.19296,0.0331939,0.0529688,1.73907,0.913566,0.581604,1.2,-0.252909,-0.374987,0.0216813,-0.263971,0.868503,0,1.39746,1.24373
4.35562,1.03147,-0.81652,1.19321,0.0236847,0.0848505,1.75105,0.902603,0.616522,1.2,-0.232874,-0.376151,0.0166727,-0.288365,0.889902,0,1.43884,1.26738
4.38787,1.0447,-0.820292,1.19373,0.0191739,0.100367,1.75631,0.890532,0.652602,1.2,-0.203158,-0.377537,0.020004,-0.314369,0.9107,0,1.48095,1.29318
4.41972,1.05772,-0.822971,1.19437,0.0105298,0.129959,1.76604,0.884134,0.67085,1.2,-0.167536,-0.375423,0.0205493,-0.327825,0.920723,0,1.50388,1.30618
4.45562,1.07327,-0.823496,1.19519,0.0031687,0.156368,1.7749,0.870451,0.708106,1.2,-0.113317,-0.36883,0.0276898,-0.355928,0.940178,0,1.54498,1.33159
4.48741,1.08496,-0.821174,1.19565,0.000147367,0.168195,1.77926,0.855605,0.746145,1.2,-0.0649364,-0.363919,0.0339583,-0.385482,0.958664,0,1.58402,1.3613
4.51934,1.09614,-0.817433,1.1962,-0.00508232,0.188398,1.78762,0.847784,0.765308,1.2,-0.0108064,-0.358327,0.0391823,-0.400698,0.967458,0,1.60211,1.38248
4.55536,1.10669,-0.812089,1.19678,-0.00843353,0.202302,1.79624,0.831125,0.80435,1.2,0.0450065,-0.35234,0.0465476,-0.432372,0.984306,0,1.63976,1.4201
4.58709,1.11662,-0.805136,1.19727,-0.00966625,0.206659,1.80032,0.813168,0.844051,1.2,0.103694,-0.345345,0.0525739,-0.465501,0.999976,0,1.67687,1.46172
4.61907,1.12588,-0.796517,1.19763,-0.0112481,0.211174,1.80848,0.803693,0.864114,1.2,0.163201,-0.340908,0.0566972,-0.482595,1.00734,0,1.6916,1.496
4.65497,1.13652,-0.783329,1.19778,-0.01209,0.209145,1.81801,0.783685,0.904692,1.2,0.237824,-0.334063,0.061143,-0.517891,1.02107,0,1.7245,1.55281
4.68691,1.14428,-0.770888,1.19766,-0.0122517,0.206734,1.82162,0.762231,0.945802,1.2,0.296512,-0.328981,0.0648441,-0.554635,1.0334,0,1.75869,1.60772
4.71992,1.15136,-0.756834,1.19739,-0.0124416,0.198551,1.83072,0.750962,0.966504,1.2,0.35189,-0.324286,0.0688349,-0.573516,1.03901,0,1.76924,1.64914
4.75555,1.15772,-0.741187,1.19705,-0.0122475,0.187903,1.84017,0.727237,1.00829,1.2,0.407404,-0.318336,0.0718403,-0.612398,1.04906,0,1.80167,1.70731
4.78754,1.1633,-0.724048,1.19666,-0.012148,0.18201,1.84492,0.701955,1.0504,1.2,0.457528,-0.310638,0.0750739,-0.652634,1.05745,0,1.83345,1.76345
4.81944,1.16933,-0.700747,1.19608,-0.0119715,0.169589,1.85415,0.688693,1.07159,1.2,0.51576,-0.306678,0.0748692,-0.673282,1.061,0,1.83636,1.81383
4.8552,1.17438,-0.682937,1.19537,-0.0117404,0.157854,1.86367,0.660922,1.11415,1.2,0.557887,-0.304758,0.0731474,-0.715577,1.06675,0,1.86901,1.87299
4.88966,1.17967,-0.665974,1.19458,-0.0117216,0.152553,1.86824,0.631422,1.15692,1.2,0.595825,-0.300946,0.0754546,-0.759203,1.07058,0,1.90356,1.92948
4.91911,1.18425,-0.647612,1.19388,-0.0122787,0.142571,1.87772,0.61575,1.17871,1.2,0.630322,-0.299207,0.0746395,-0.78187,1.07177,0,1.91277,1.96963
4.95492,1.18813,-0.627953,1.19321,-0.0129024,0.133664,1.88805,0.583866,1.22122,1.2,0.662702,-0.298575,0.0737714,-0.826964,1.07254,0,1.94541,2.02596
4.98773,1.19134,-0.607131,1.19263,-0.0135876,0.130993,1.89164,0.549832,1.26413,1.2,0.69305,-0.292962,0.0754859,-0.873687,1.07115,0,1.97818,2.07874
5.02007,1.19389,-0.58526,1.19211,-0.0153612,0.125724,1.90054,0.532145,1.28551,1.2,0.720091,-0.292069,0.078042,-0.897426,1.06961,0,1.98438,2.1158
5.05568,1.19625,-0.556487,1.19162,-0.0170409,0.122238,1.9092,0.495248,1.32824,1.2,0.753886,-0.290119,0.0833882,-0.945825,1.06475,0,2.01089,2.17523
5.08763,1.1974,-0.532413,1.19138,-0.0181166,0.121466,1.91415,0.456455,1.37067,1.2,0.777853,-0.284566,0.088983,-0.995163,1.05744,0,2.04225,2.22542
5.11945,1.1979,-0.507517,1.19128,-0.0202162,0.121498,1.9216,0.436288,1.39179,1.2,0.801509,-0.280054,0.0948451,-1.02022,1.05284,0,2.04634,2.25927
5.1554,1.19773,-0.481752,1.19131,-0.0230136,0.122683,1.9297,0.39448,1.43368,1.2,0.826778,-0.277525,0.101699,-1.07093,1.04166,0,2.07705,2.31341
5.18726,1.1968,-0.455111,1.19141,-0.0246136,0.12392,1.93357,0.350641,1.47505,1.2,0.85328,-0.267526,0.106839,-1.12242,1.02776,0,2.10751,2.36486
5.21917,1.19516,-0.427663,1.19159,-0.0281913,0.127329,1.94141,0.327871,1.49558,1.2,0.877461,-0.263706,0.113969,-1.14851,1.01972,0,2.10977,2.40099
5.25528,1.19258,-0.39207,1.19156,-0.0312896,0.131248,1.94916,0.280896,1.536,1.2,0.909585,-0.256777,0.123801,-1.201,1.00153,0,2.13277,2.46033
5.28726,1.19018,-0.362536,1.19119,-0.0331351,0.132918,1.95292,0.231825,1.57563,1.2,0.937008,-0.247003,0.129787,-1.25397,0.980351,0,2.16218,2.51468
5.31978,1.18689,-0.332181,1.19098,-0.0377152,0.137355,1.96103,0.206481,1.59512,1.2,0.963936,-0.241769,0.139112,-1.28061,0.968604,0,2.16235,2.55389
5.355,1.18269,-0.301015,1.19092,-0.0411409,0.141339,1.96781,0.154201,1.63335,1.2,0.993221,-0.235369,0.149037,-1.33411,0.942743,0,2.1908,2.61278
5.38691,1.17753,-0.268973,1.19098,-0.0430599,0.143262,1.97143,0.0997356,1.6705,1.2,1.02447,-0.223697,0.157012,-1.38779,0.913619,0,2.21885,2.67154
5.41899,1.17138,-0.236125,1.1911,-0.0478187,0.147011,1.97911,0.0717266,1.68861,1.2,1.05376,-0.215915,0.164783,-1.41462,0.897828,0,2.21674,2.71301
5.45499,1.16231,-0.194038,1.19135,-0.0527693,0.14973,1.98683,0.014054,1.72386,1.2,1.08989,-0.202951,0.170867,-1.46822,0.863676,0,2.23538,2.77684
5.48693,1.15388,-0.15953,1.19153,-0.0552698,0.150606,1.99059,-0.0457325,1.75766,1.2,1.12096,-0.188175,0.176187,-1.52155,0.826078,0,2.26158,2.83595
5.51876,1.14432,-0.124244,1.19165,-0.0603017,0.152097,1.99866,-0.0773316,1.77445,1.2,1.15457,-0.17673,0.179635,-1.54883,0.805352,0,2.25778,2.88187
5.55483,1.1336,-0.0882016,1.19177,-0.0653366,0.152952,2.00663,-0.13941,1.80538,1.2,1.18646,-0.164773,0.184839,-1.60067,0.763009,0,2.28173,2.9433
5.58665,1.1217,-0.0514952,1.19193,-0.067647,0.152941,2.01066,-0.204478,1.83498,1.2,1.21827,-0.147802,0.191356,-1.65253,0.716427,0,2.30599,3.00417
5.61874,1.10863,-0.0141175,1.19211,-0.0724476,0.152473,2.01869,-0.237752,1.84905,1.2,1.24923,-0.134485,0.196708,-1.6781,0.691778,0,2.29874,3.04806
5.65473,1.0918,0.0339574,1.19211,-0.0774483,0.151177,2.02685,-0.305917,1.8757,1.2,1.28856,-0.114426,0.201388,-1.72849,0.63961,0,2.31207,3.11637
5.68661,1.07827,0.0735733,1.19186,-0.080133,0.150258,2.03125,-0.37606,1.90018,1.2,1.31818,-0.0947488,0.205495,-1.77759,0.583686,0,2.33487,3.17589
5.71983,1.06329,0.113629,1.19168,-0.0859047,0.148049,2.03932,-0.411912,1.91158,1.2,1.34857,-0.0797632,0.207563,-1.80162,0.554259,0,2.32571,3.22006
5.75556,1.04691,0.154104,1.19153,-0.091644,0.145432,2.04735,-0.484961,1.93255,1.2,1.37616,-0.0650811,0.210174,-1.84838,0.492608,0,2.34724,3.27916
5.78745,1.02913,0.194917,1.19147,-0.0944663,0.143893,2.05149,-0.559704,1.95093,1.2,1.40308,-0.0432023,0.215348,-1.89317,0.42726,0,2.36814,3.33661
5.81969,1.00995,0.235988,1.19144,-0.100793,0.140844,2.05952,-0.59774,1.95913,1.2,1.42787,-0.0242125,0.21774,-1.91479,0.393155,0,2.35668,3.37564
5.85577,0.983979,0.28766,1.19144,-0.107908,0.13807,2.06816,-0.67574,1.97354,1.2,1.46136,0.000439336,0.219752,-1.95662,0.321481,0,2.36578,3.44006
5.88775,0.961593,0.329212,1.19144,-0.111752,0.136343,2.07235,-0.754255,1.98484,1.2,1.48519,0.026266,0.223936,-1.99536,0.247047,0,2.38439,3.49473
5.91967,0.937731,0.37083,1.1915,-0.120167,0.132617,2.08115,-0.794361,1.9894,1.2,1.50933,0.0484298,0.225891,-2.01383,0.208164,0,2.37065,3.53401
5.95543,0.912342,0.412478,1.19165,-0.128927,0.128575,2.08976,-0.875639,1.99613,1.2,1.53317,0.0718874,0.227052,-2.04852,0.127625,0,2.38849,3.58931
5.98738,0.885372,0.454076,1.19186,-0.133395,0.126381,2.09397,-0.958126,1.99956,1.2,1.55441,0.104082,0.23061,-2.07993,0.0435573,0,2.40563,3.64215
6.01932,0.85688,0.495548,1.19211,-0.143406,0.121416,2.10373,-0.999903,2,1.2,1.5765,0.128017,0.230254,-2.09436,0.000101497,0,2.38979,3.68031
6.05516,0.819758,0.548412,1.19205,-0.151733,0.116366,2.11174,-1.08371,1.99825,1.2,1.60035,0.16848,0.232611,-2.09256,-0.0876568,0,2.39275,3.70908
6.08707,0.789063,0.59176,1.19162,-0.156357,0.113287,2.11592,-1.16724,1.993,1.2,1.61735,0.205155,0.237887,-2.08706,-0.175132,0,2.40638,3.73147
6.11918,0.75665,0.634528,1.19135,-0.16471,0.106109,2.12475,-1.20895,1.98906,1.2,1.63593,0.237165,0.234819,-2.08293,-0.218808,0,2.38713,3.75406
6.15501,0.7137,0.687045,1.19113,-0.172847,0.0993681,2.13362,-1.29206,1.97856,1.2,1.65325,0.284158,0.238153,-2.07194,-0.305841,0,2.38561,3.77914
6.18686,0.686659,0.718006,1.19116,-0.176878,0.09606,2.13786,-1.3747,1.96459,1.2,1.66271,0.314564,0.241319,-2.05731,-0.392387,0,2.40899,3.79428
6.21958,0.649095,0.758574,1.19128,-0.184694,0.0893421,2.14658,-1.41578,1.95631,1.2,1.67523,0.351948,0.244108,-2.04864,-0.4354,0,2.38712,3.81402
6.25592,0.599756,0.80805,1.19171,-0.193498,0.0827366,2.15508,-1.49728,1.93719,1.2,1.68805,0.404249,0.251484,-2.02862,-0.520755,0,2.38172,3.8383
6.28793,0.558351,0.84651,1.19229,-0.198044,0.079039,2.1594,-1.57796,1.91467,1.2,1.69238,0.452532,0.259847,-2.00504,-0.605238,0,2.38848,3.85452
6.31982,0.515283,0.883824,1.1929,-0.206487,0.0708662,2.16794,-1.61842,1.90199,1.2,1.69874,0.497462,0.258861,-1.99176,-0.647608,0,2.36419,3.87272
6.35582,0.459093,0.928773,1.19373,-0.213971,0.0619542,2.17668,-1.69705,1.8746,1.2,1.70249,0.556375,0.260694,-1.96308,-0.729947,0,2.35448,3.89345
6.38758,0.424135,0.954798,1.19421,-0.217245,0.0573233,2.18099,-1.77493,1.84377,1.2,1.70381,0.5953,0.263623,-1.93079,-0.81151,0,2.37196,3.90627
6.41946,0.3761,0.988348,1.19485,-0.223313,0.0486136,2.18904,-1.81334,1.82715,1.2,1.70744,0.645054,0.262099,-1.91339,-0.851732,0,2.34463,3.92676
6.45548,0.315468,1.03115,1.1954,-0.228321,0.039694,2.1964,-1.88919,1.79146,1.2,1.70793,0.710372,0.265083,-1.87602,-0.931157,0,2.33208,3.95089
6.4873,0.267105,1.06685,1.19556,-0.230537,0.0347331,2.20043,-1.96342,1.75266,1.2,1.70407,0.763141,0.270209,-1.83538,-1.00889,0,2.33358,3.96748
6.51969,0.217033,1.10067,1.19574,-0.233421,0.0271948,2.20603,-1.9999,1.73211,1.2,1.69715,0.814573,0.270134,-1.81386,-1.0471,0,2.30511,3.98321
6.55547,0.165343,1.1326,1.19604,-0.235071,0.0187791,2.21157,-2.07163,1.68867,1.2,1.69038,0.865618,0.268668,-1.76838,-1.1222,0,2.30505,3.99833
6.588,0.112132,1.16261,1.19638,-0.235598,0.0145061,2.21416,-2.14133,1.64237,1.2,1.67652,0.920757,0.273471,-1.71988,-1.1952,0,2.30397,4.01093
6.61983,0.0574807,1.1907,1.19675,-0.235759,0.00590467,2.21927,-2.17546,1.61811,1.2,1.66503,0.97389,0.268672,-1.69448,-1.23094,0,2.27348,4.02738
6.65569,-0.0127821,1.2231,1.19714,-0.235129,-0.00366821,2.22346,-2.24221,1.56746,1.2,1.64477,1.04315,0.265593,-1.64144,-1.30084,0,2.25586,4.04524
6.68772,-0.0704667,1.24676,1.19748,-0.234477,-0.00859036,2.22539,-2.3069,1.51394,1.2,1.62521,1.09884,0.269456,-1.58539,-1.36858,0,2.25234,4.05817
6.721,-0.129355,1.26844,1.19772,-0.232395,-0.019508,2.22932,-2.33819,1.48635,1.2,1.60524,1.15341,0.257615,-1.5565,-1.40135,0,2.21956,4.07305
6.75606,-0.189331,1.28806,1.19794,-0.229677,-0.0308196,2.23248,-2.39925,1.42902,1.2,1.58002,1.20743,0.251219,-1.49647,-1.46529,0,2.21441,4.08305
6.788,-0.250295,1.30559,1.19818,-0.228473,-0.0356316,2.23364,-2.45788,1.36915,1.2,1.55025,1.2604,0.25484,-1.43377,-1.52669,0,2.2085,4.09112
6.82004,-0.312164,1.32099,1.19839,-0.224828,-0.0481884,2.23634,-2.48622,1.33834,1.2,1.52023,1.31556,0.242051,-1.4015,-1.55637,0,2.17413,4.10403
6.85574,-0.391182,1.34066,1.19821,-0.220539,-0.0611394,2.23812,-2.54095,1.27495,1.2,1.48094,1.38088,0.232975,-1.33512,-1.61367,0,2.15077,4.11726
6.88769,-0.455816,1.35778,1.1976,-0.218254,-0.0677942,2.23865,-2.593,1.20928,1.2,1.44853,1.4302,0.232866,-1.26635,-1.66819,0,2.14234,4.12611
6.92041,-0.521025,1.37235,1.19711,-0.213189,-0.0811435,2.23885,-2.64258,1.14103,1.2,1.41133,1.48079,0.218822,-1.19488,-1.7201,0,2.13413,4.13352
6.95775,-0.586676,1.38438,1.19672,-0.207865,-0.0955608,2.2391,-2.66582,1.10681,1.2,1.36931,1.5278,0.204826,-1.15905,-1.74445,0,2.09759,4.14031
6.98951,-0.652621,1.39387,1.19644,-0.204752,-0.102965,2.23873,-2.71068,1.03614,1.2,1.32363,1.57289,0.205803,-1.08504,-1.79142,0,2.08892,4.14278
7.02129,-0.71879,1.40083,1.19635,-0.198761,-0.118236,2.23795,-2.75258,0.963572,1.2,1.27334,1.61897,0.192006,-1.00905,-1.8353,0,2.08026,4.14465
7.05702,-0.801598,1.4059,1.19635,-0.192384,-0.133559,2.2367,-2.77235,0.926701,1.2,1.20392,1.67304,0.183305,-0.970439,-1.856,0,2.02818,4.14916
7.0894,-0.86777,1.40704,1.19647,-0.188244,-0.142644,2.23562,-2.80964,0.851597,1.2,1.14471,1.71152,0.183431,-0.891791,-1.89505,0,2.01975,4.14588
7.12215,-0.933747,1.40554,1.19672,-0.182261,-0.156452,2.23387,-2.84369,0.775112,1.2,1.0799,1.74989,0.176347,-0.811695,-1.93071,0,2.0113,4.14199
7.1582,-0.999383,1.4014,1.19714,-0.175767,-0.171941,2.23175,-2.85958,0.736186,1.2,1.01152,1.78708,0.170597,-0.770932,-1.94735,0,1.97556,4.14152
7.18982,-1.06458,1.39456,1.19775,-0.172305,-0.179398,2.23037,-2.88871,0.657845,1.2,0.941033,1.81863,0.178961,-0.688893,-1.97786,0,1.96729,4.13545
7.22257,-1.12918,1.38499,1.19849,-0.165716,-0.194141,2.22742,-2.91461,0.578165,1.2,0.863299,1.85098,0.17514,-0.605453,-2.00497,0,1.95926,4.12992
7.25898,-1.21087,1.37331,1.19888,-0.157444,-0.208726,2.22331,-2.92629,0.537964,1.2,0.768298,1.88801,0.172563,-0.563355,-2.01721,0,1.90801,4.12963
7.29059,-1.27748,1.36539,1.19861,-0.153751,-0.21515,2.22113,-2.94713,0.456803,1.2,0.694737,1.91307,0.179601,-0.478363,-2.03903,0,1.90086,4.12644
7.32245,-1.34308,1.35429,1.19843,-0.146357,-0.227222,2.21656,-2.96457,0.374812,1.2,0.614171,1.93893,0.176918,-0.392503,-2.05729,0,1.89435,4.12486
7.358,-1.40755,1.34004,1.1983,-0.13905,-0.237655,2.21251,-2.97197,0.333638,1.2,0.5296,1.96063,0.178662,-0.349385,-2.06505,0,1.86018,4.12439
7.3897,-1.47079,1.32268,1.19836,-0.133465,-0.244071,2.2101,-2.98421,0.25078,1.2,0.448262,1.97782,0.189373,-0.262617,-2.07787,0,1.85457,4.12187
7.42149,-1.53273,1.30233,1.19852,-0.125398,-0.252809,2.20614,-2.99298,0.16747,1.2,0.362957,1.99286,0.192151,-0.175374,-2.08704,0,1.84938,4.11974
7.45731,-1.60827,1.27274,1.19879,-0.116079,-0.260971,2.20207,-2.99605,0.125674,1.2,0.256748,2.00954,0.201012,-0.131606,-2.09026,0,1.80047,4.12305
7.48901,-1.66711,1.24582,1.19916,-0.110994,-0.264967,2.20019,-2.99956,0.0420018,1.2,0.172857,2.01798,0.212915,-0.0439841,-2.09393,0,1.79571,4.12313
7.52091,-1.72451,1.21604,1.19962,-0.101113,-0.271817,2.19634,-2.99956,-0.0417851,1.2,0.0841695,2.02763,0.216747,0.0437572,-2.09394,0,1.79106,4.12746
7.55671,-1.79403,1.17486,1.2002,-0.0904694,-0.277636,2.19312,-2.99825,-0.0836589,1.2,-0.0251329,2.03455,0.224168,0.0876073,-2.09256,0,1.74184,4.13473
7.5884,-1.83454,1.14809,1.2005,-0.0850206,-0.280101,2.19157,-2.99299,-0.167344,1.2,-0.0917065,2.03605,0.228431,0.175242,-2.08705,0,1.75282,4.13804
7.62043,-1.887,1.11005,1.20084,-0.0738099,-0.283507,2.18909,-2.98424,-0.250559,1.2,-0.181082,2.0347,0.226148,0.262384,-2.07789,0,1.74791,4.14261
7.6561,-1.95446,1.06202,1.20059,-0.0628155,-0.285899,2.18716,-2.97856,-0.292044,1.2,-0.286053,2.03158,0.229594,0.305828,-2.07195,0,1.69773,4.15235
7.68809,-2.01125,1.02425,1.19989,-0.0558376,-0.286223,2.18564,-2.96459,-0.374667,1.2,-0.364976,2.02855,0.237659,0.39235,-2.05732,0,1.69288,4.16225
7.72002,-2.06569,0.983656,1.19925,-0.0456887,-0.285979,2.18377,-2.95631,-0.415741,1.2,-0.445027,2.02361,0.239342,0.435363,-2.04865,0,1.65877,4.1732
7.75653,-2.11781,0.94036,1.1987,-0.0338361,-0.28449,2.18243,-2.93718,-0.497314,1.2,-0.522294,2.01589,0.23505,0.520786,-2.02861,0,1.65477,4.18345
7.78835,-2.16756,0.894592,1.19821,-0.0276735,-0.283547,2.18155,-2.91464,-0.578046,1.2,-0.598278,2.00139,0.242392,0.605328,-2.00501,0,1.6513,4.19031
7.8204,-2.21497,0.846459,1.19778,-0.0148132,-0.281699,2.18048,-2.88869,-0.657927,1.2,-0.673744,1.98954,0.235655,0.688979,-1.97783,0,1.64836,4.20149
7.85612,-2.27094,0.783126,1.19727,-0.00165064,-0.279088,2.18024,-2.8746,-0.697035,1.2,-0.765414,1.96692,0.233896,0.729934,-1.96308,0,1.59853,4.21137
7.88842,-2.31296,0.73015,1.19693,0.00476688,-0.277497,2.18044,-2.84378,-0.774915,1.2,-0.836548,1.94443,0.238813,0.811489,-1.9308,0,1.59593,4.21787
7.92029,-2.35253,0.675218,1.19662,0.0177044,-0.273957,2.18125,-2.8097,-0.851468,1.2,-0.906307,1.92328,0.22983,0.891655,-1.89511,0,1.59367,4.22677
7.95619,-2.38965,0.618446,1.19632,0.03094,-0.269663,2.18304,-2.7909,-0.890324,1.2,-0.973151,1.89791,0.217985,0.932345,-1.87543,0,1.56122,4.23279
7.98804,-2.4242,0.560022,1.19611,0.0371057,-0.266942,2.18406,-2.75265,-0.963439,1.2,-1.03968,1.86715,0.222732,1.00891,-1.83537,0,1.55847,4.23733
8.01999,-2.45619,0.500049,1.19592,0.0490448,-0.261504,2.18681,-2.73211,-0.999904,1.2,-1.1012,1.83812,0.213087,1.0471,-1.81386,0,1.52512,4.24235
8.05592,-2.49526,0.424942,1.19528,0.0608087,-0.256896,2.18993,-2.68871,-1.07157,1.2,-1.17752,1.79666,0.211423,1.12214,-1.76841,0,1.50897,4.24769
8.0877,-2.52653,0.365414,1.19421,0.0663713,-0.254788,2.19146,-2.64236,-1.14134,1.2,-1.23592,1.76079,0.216753,1.19521,-1.71987,0,1.51121,4.25117
8.1198,-2.55486,0.304422,1.19324,0.0765852,-0.251057,2.19515,-2.61809,-1.17549,1.2,-1.29087,1.72651,0.210439,1.23097,-1.69446,0,1.48128,4.25523
8.1556,-2.58025,0.24208,1.19244,0.0860488,-0.248489,2.19912,-2.56746,-1.2422,1.2,-1.34479,1.69195,0.209153,1.30083,-1.64144,0,1.48436,4.26082
8.18764,-2.60274,0.1785,1.19177,0.0902512,-0.247694,2.20152,-2.51405,-1.30677,1.2,-1.39972,1.6503,0.221998,1.36845,-1.58551,0,1.48794,4.2641
8.22266,-2.62231,0.113833,1.19135,0.0979079,-0.247429,2.20634,-2.458,-1.36903,1.2,-1.44867,1.61175,0.228676,1.43365,-1.52681,0,1.49196,4.26739
8.25599,-2.64267,0.0316161,1.19098,0.104539,-0.248101,2.21171,-2.42899,-1.39928,1.2,-1.51163,1.56058,0.24329,1.46532,-1.49644,0,1.44679,4.27397
8.28787,-2.65568,-0.0351716,1.19092,0.107501,-0.24836,2.2145,-2.36917,-1.45786,1.2,-1.56317,1.51595,0.262001,1.52667,-1.43379,0,1.45128,4.2798
8.3221,-2.66579,-0.102767,1.19107,0.114322,-0.25007,2.22124,-2.33828,-1.48627,1.2,-1.60883,1.47749,0.274197,1.55642,-1.40144,0,1.42177,4.28745
8.35646,-2.67299,-0.171128,1.19138,0.12011,-0.251587,2.22737,-2.27473,-1.54112,1.2,-1.65623,1.43864,0.286739,1.61386,-1.3349,0,1.42673,4.29746
8.38828,-2.6773,-0.240184,1.19183,0.123565,-0.25246,2.23102,-2.20923,-1.59304,1.2,-1.70791,1.39205,0.303556,1.66822,-1.2663,0,1.43156,4.30781
8.4202,-2.67855,-0.32738,1.19254,0.131014,-0.253225,2.23914,-2.14148,-1.64226,1.2,-1.76787,1.33942,0.318017,1.71977,-1.19535,0,1.42036,4.32318
8.45608,-2.6801,-0.39769,1.19241,0.140437,-0.252525,2.24841,-2.10688,-1.66578,1.2,-1.81133,1.30342,0.321414,1.7444,-1.15912,0,1.39165,4.33712
8.48901,-2.68221,-0.468453,1.19171,0.145659,-0.25193,2.25268,-2.03611,-1.71069,1.2,-1.85755,1.25859,0.333841,1.79143,-1.08502,0,1.40024,4.3496
8.52072,-2.68093,-0.539584,1.19122,0.156869,-0.250333,2.26216,-1.96358,-1.75257,1.2,-1.90017,1.22217,0.333658,1.83529,-1.00906,0,1.40926,4.36387
8.5566,-2.67619,-0.610978,1.19107,0.168229,-0.248334,2.27247,-1.92666,-1.77237,1.2,-1.9402,1.18371,0.336856,1.85602,-0.970399,0,1.38228,4.37778
8.58856,-2.66805,-0.682461,1.19116,0.174065,-0.247324,2.27769,-1.85131,-1.80977,1.2,-1.9848,1.13193,0.352434,1.89519,-0.891485,0,1.39212,4.39007
8.6205,-2.65651,-0.753903,1.19147,0.185861,-0.245076,2.28922,-1.77508,-1.84371,1.2,-2.02324,1.09064,0.355616,1.93072,-0.811664,0,1.40166,4.40216
8.65673,-2.6373,-0.842979,1.19214,0.197963,-0.242513,2.30117,-1.73625,-1.85955,1.2,-2.07371,1.03307,0.364672,1.94732,-0.770996,0,1.35845,4.42225
8.68858,-2.61818,-0.913973,1.19278,0.204585,-0.241281,2.30865,-1.65783,-1.88872,1.2,-2.11489,0.980987,0.377762,1.97786,-0.688878,0,1.36838,4.43642
8.72057,-2.59579,-0.984656,1.19354,0.211406,-0.240075,2.32015,-1.57814,-1.91462,1.2,-2.15262,0.938861,0.385332,2.00498,-0.605426,0,1.37858,4.45185
8.75805,-2.56336,-1.07251,1.1944,0.208087,-0.241936,2.33328,-1.53655,-1.92668,1.2,-2.20111,0.882971,0.405572,2.01762,-0.561875,0,1.33566,4.4777
8.78981,-2.54161,-1.12497,1.19473,0.200925,-0.244021,2.34006,-1.4568,-1.94713,1.2,-2.23041,0.846488,0.424582,2.03903,-0.478362,0,1.36117,4.49039
8.82297,-2.50167,-1.21204,1.1951,0.177515,-0.250418,2.35395,-1.37483,-1.96456,1.2,-2.27762,0.795649,0.471481,2.05728,-0.392519,0,1.35502,4.51945
8.85843,-2.46916,-1.28226,1.19473,0.145173,-0.257851,2.36875,-1.33366,-1.97197,1.2,-2.31239,0.76669,0.51973,2.06504,-0.349407,0,1.32857,4.54727
8.89017,-2.43628,-1.35317,1.19376,0.124075,-0.262159,2.37799,-1.25077,-1.98422,1.2,-2.35417,0.73503,0.555054,2.07787,-0.262605,0,1.34302,4.57672
8.92246,-2.40062,-1.42424,1.19287,0.0899942,-0.267723,2.39402,-1.16745,-1.99298,1.2,-2.39012,0.722345,0.6018,2.08704,-0.175349,0,1.35803,4.60575
8.95766,-2.36239,-1.49564,1.19199,0.0633292,-0.270064,2.40953,-1.12567,-1.99605,1.2,-2.43029,0.715223,0.631715,2.09026,-0.131602,0,1.33414,4.64236
8.98967,-2.32175,-1.56743,1.19104,0.0511694,-0.270253,2.41857,-1.04198,-1.99956,1.2,-2.47477,0.707498,0.64656,2.09393,-0.0439614,0,1.35079,4.67501
9.02124,-2.27891,-1.63974,1.19003,0.0348463,-0.267296,2.43675,-0.958329,-1.99957,1.2,-2.51415,0.722645,0.656055,2.08001,0.0433472,0,1.36876,4.69021
9.05715,-2.22235,-1.73075,1.18875,0.0322814,-0.258847,2.45528,-0.916872,-1.99827,1.2,-2.56642,0.742815,0.645519,2.06471,0.0858921,0,1.33266,4.72182
9.08898,-2.1748,-1.80398,1.18774,0.0354583,-0.252721,2.46475,-0.834887,-1.99317,1.2,-2.607,0.747605,0.635833,2.03159,0.168295,0,1.35326,4.71767
9.12088,-2.12526,-1.8774,1.18686,0.0525703,-0.235609,2.48574,-0.754395,-1.98486,1.2,-2.64227,0.786294,0.588099,1.99543,0.246912,0,1.37513,4.70585
9.1569,-2.07375,-1.95078,1.18625,0.0754491,-0.218524,2.50301,-0.7147,-1.97955,1.2,-2.67482,0.812401,0.536542,1.97627,0.284827,0,1.35943,4.71157
9.18874,-2.02031,-2.02391,1.186,0.0907005,-0.208336,2.51276,-0.636479,-1.96669,1.2,-2.7045,0.809485,0.513459,1.93598,0.357845,0,1.38509,4.6906
9.22054,-1.96493,-2.09647,1.18628,0.124721,-0.186482,2.53287,-0.559553,-1.9509,1.2,-2.72684,0.829597,0.445657,1.89308,0.427394,0,1.41297,4.65877
9.25642,-1.89265,-2.18468,1.18744,0.162424,-0.164377,2.55299,-0.522211,-1.94209,1.2,-2.74709,0.819986,0.38224,1.87109,0.46032,0,1.3918,4.64791
9.2917,-1.83186,-2.25033,1.18881,0.181501,-0.153648,2.56336,-0.44822,-1.92238,1.2,-2.75562,0.782982,0.360602,1.82523,0.523896,0,1.42202,4.60232
9.32039,-1.76922,-2.31441,1.1907,0.219075,-0.133385,2.58399,-0.376167,-1.90022,1.2,-2.76043,0.76265,0.292427,1.77766,0.583598,0,1.45335,4.55103
9.35633,-1.70482,-2.3766,1.19299,0.253465,-0.114963,2.60397,-0.340358,-1.88809,1.2,-2.75723,0.732454,0.231604,1.75295,0.612427,0,1.44929,4.51771
9.38816,-1.63877,-2.43653,1.19553,0.269139,-0.106277,2.61353,-0.271749,-1.8627,1.2,-2.75345,0.664812,0.218268,1.70356,0.666035,0,1.48259,4.46235
9.42008,-1.57109,-2.49389,1.19815,0.29674,-0.0908926,2.63195,-0.20461,-1.83504,1.2,-2.74551,0.609267,0.171508,1.65264,0.71633,0,1.51702,4.4028
9.4562,-1.48428,-2.56161,1.20135,0.319356,-0.0776091,2.64871,-0.171846,-1.82048,1.2,-2.73155,0.516438,0.14295,1.62683,0.740061,0,1.50723,4.36646
9.488,-1.41322,-2.61241,1.2037,0.330091,-0.0706452,2.65789,-0.107761,-1.78995,1.2,-2.71723,0.430577,0.137292,1.57453,0.784861,0,1.54294,4.30855
9.52037,-1.34086,-2.66004,1.20572,0.341874,-0.0610037,2.67031,-0.0458653,-1.75773,1.2,-2.70035,0.346381,0.12086,1.52166,0.825992,0,1.57835,4.25088
9.55638,-1.26732,-2.70442,1.20737,0.349651,-0.0517136,2.68248,-0.0155772,-1.74095,1.2,-2.68156,0.260488,0.106975,1.49493,0.845312,0,1.57962,4.21859
9.58898,-1.19271,-2.74551,1.20859,0.35145,-0.0474745,2.68759,0.0430258,-1.70649,1.2,-2.66285,0.159685,0.113527,1.44156,0.881102,0,1.61452,4.16887
9.62077,-1.11704,-2.78328,1.20938,0.350131,-0.0399464,2.69618,0.0996225,-1.67058,1.2,-2.64479,0.0647196,0.109454,1.3879,0.913556,0,1.64878,4.12252
9.65665,-1.02116,-2.82866,1.20944,0.344445,-0.0332105,2.70303,0.12709,-1.65217,1.2,-2.61793,-0.0567956,0.11155,1.36108,0.928514,0,1.64399,4.10071
9.68862,-0.943557,-2.86983,1.20828,0.339614,-0.0292551,2.70538,0.180508,-1.61444,1.2,-2.59842,-0.151433,0.115805,1.30743,0.956023,0,1.68511,4.06148
9.72039,-0.865269,-2.90715,1.20688,0.328987,-0.0200692,2.70935,0.231691,-1.57573,1.2,-2.57585,-0.242804,0.108925,1.25411,0.980291,0,1.72512,4.02199
9.7564,-0.766604,-2.94857,1.20486,0.315375,-0.00893912,2.71257,0.25654,-1.55599,1.2,-2.5447,-0.35807,0.102016,1.22752,0.991284,0,1.72804,4.00759
9.78886,-0.707042,-2.97075,1.20352,0.308182,-0.00241141,2.71379,0.304563,-1.51595,1.2,-2.52582,-0.424716,0.0988048,1.17478,1.01096,0,1.77195,3.97056
9.82068,-0.627292,-2.99733,1.20169,0.293111,0.0113186,2.71535,0.350518,-1.47516,1.2,-2.49479,-0.51481,0.0802892,1.12257,1.02771,0,1.80917,3.93333
9.85658,-0.527395,-3.02581,1.19937,0.277299,0.0261259,2.71601,0.372704,-1.45454,1.2,-2.44889,-0.622228,0.0618926,1.09672,1.03502,0,1.81082,3.91429
9.88863,-0.44747,-3.04497,1.19754,0.267766,0.0353611,2.71584,0.415566,-1.41286,1.2,-2.40922,-0.701363,0.0564803,1.04556,1.04756,0,1.84625,3.87265
9.92048,-0.367713,-3.06101,1.1958,0.253325,0.0492351,2.71537,0.456354,-1.37078,1.2,-2.36357,-0.780321,0.0346848,0.995289,1.05742,0,1.88042,3.82889
9.95774,-0.268541,-3.07682,1.19376,0.235841,0.0656333,2.71405,0.476022,-1.34958,1.2,-2.30286,-0.871995,0.00823731,0.970468,1.06139,0,1.8809,3.80167
9.9893,-0.209405,-3.08417,1.1926,0.229306,0.0712564,2.71335,0.513853,-1.307,1.2,-2.26508,-0.919459,0.00634125,0.921605,1.06746,0,1.91873,3.75538
10.0212,-0.131119,-3.09154,1.1911,0.213278,0.0850753,2.71115,0.549763,-1.26421,1.2,-2.20811,-0.987423,-0.0191427,0.87378,1.07114,0,1.95008,3.70623
10.057,-0.0325949,-3.10016,1.18924,0.198357,0.0977525,2.70827,0.567008,-1.24277,1.2,-2.13656,-1.06211,-0.0381529,0.850284,1.07212,0,1.9518,3.67119
10.0893,0.047193,-3.10776,1.18765,0.191219,0.10321,2.70618,0.600084,-1.19989,1.2,-2.08135,-1.11207,-0.0408155,0.804194,1.07241,0,1.98641,3.61939
10.1213,0.12575,-3.11249,1.18619,0.175899,0.114616,2.70188,0.631346,-1.15703,1.2,-2.0179,-1.16578,-0.062927,0.759313,1.07059,0,2.01981,3.56626
10.1576,0.202991,-3.11452,1.18491,0.164284,0.123389,2.69824,0.646312,-1.13563,1.2,-1.95473,-1.21078,-0.0757825,0.737344,1.06892,0,2.02799,3.52846
10.1895,0.278856,-3.11402,1.18372,0.158148,0.128043,2.69616,0.674952,-1.09295,1.2,-1.89279,-1.24911,-0.0762601,0.694365,1.06412,0,2.05958,3.47134
10.2216,0.35323,-3.1111,1.18265,0.147232,0.137163,2.69223,0.701888,-1.05051,1.2,-1.82389,-1.28838,-0.0882375,0.652738,1.05747,0,2.08995,3.4124
10.2574,0.444035,-3.10412,1.18155,0.137975,0.145522,2.68832,0.714746,-1.02939,1.2,-1.73852,-1.33286,-0.0921774,0.632424,1.05348,0,2.09239,3.36519
10.2892,0.514873,-3.09598,1.18085,0.133937,0.149189,2.68619,0.739236,-0.987451,1.2,-1.67057,-1.36237,-0.088376,0.592876,1.04426,0,2.12052,3.30497
10.3214,0.584027,-3.08568,1.18018,0.126719,0.156265,2.68206,0.762185,-0.945888,1.2,-1.59775,-1.39263,-0.0925321,0.554713,1.03343,0,2.14729,3.2446
10.3601,0.651471,-3.07337,1.17953,0.119399,0.161979,2.67789,0.773098,-0.925269,1.2,-1.52654,-1.41775,-0.0937853,0.536158,1.02744,0,2.15164,3.20039
10.3914,0.717166,-3.05916,1.17905,0.116002,0.164235,2.67579,0.793839,-0.884387,1.2,-1.45837,-1.43845,-0.085818,0.500109,1.01439,0,2.17623,3.13998
10.4231,0.781077,-3.04302,1.17865,0.109718,0.167964,2.67148,0.81314,-0.844111,1.2,-1.3837,-1.46232,-0.0819229,0.465551,0.999999,0,2.19925,3.0805
10.4588,0.860521,-3.02123,1.17804,0.103691,0.170682,2.66682,0.822283,-0.824187,1.2,-1.29555,-1.48793,-0.0760726,0.448809,0.99232,0,2.19749,3.03318
10.4908,0.924334,-3.00286,1.17734,0.100917,0.171409,2.66422,0.839575,-0.784833,1.2,-1.22779,-1.50634,-0.0687171,0.416426,0.976062,0,2.21976,2.97834
10.5225,0.986086,-2.98265,1.17664,0.095105,0.172437,2.65828,0.855604,-0.746145,1.2,-1.15465,-1.52513,-0.0663138,0.385483,0.958665,0,2.24043,2.92329
10.5583,1.04576,-2.9607,1.17593,0.0902224,0.17207,2.65309,0.863161,-0.727069,1.2,-1.08231,-1.54143,-0.0611239,0.370553,0.949566,0,2.24121,2.88437
10.5947,1.11753,-2.93091,1.17505,0.0875707,0.171515,2.64998,0.877676,-0.688718,1.2,-0.999304,-1.55733,-0.0491448,0.341199,0.930222,0,2.25512,2.82618
10.6239,1.15912,-2.91185,1.17459,0.0829589,0.17079,2.64351,0.890519,-0.65264,1.2,-0.943973,-1.56875,-0.0436662,0.314397,0.910721,0,2.27526,2.78086
10.6596,1.22605,-2.87822,1.17395,0.0785531,0.169096,2.63676,0.896672,-0.634534,1.2,-0.858417,-1.58506,-0.0310137,0.301246,0.900449,0,2.26788,2.74291
10.6913,1.27751,-2.84963,1.17355,0.0757109,0.167823,2.63242,0.908218,-0.59892,1.2,-0.791448,-1.59545,-0.0193281,0.275972,0.879273,0,2.28095,2.69518
10.7237,1.32711,-2.81962,1.17322,0.0717059,0.166352,2.62597,0.918774,-0.564185,1.2,-0.722811,-1.60599,-0.0102174,0.252089,0.857346,0,2.29225,2.64926
10.7594,1.37491,-2.78827,1.17297,0.0669107,0.164602,2.61819,0.923698,-0.547162,1.2,-0.652545,-1.61427,-0.000532611,0.240666,0.846126,0,2.28624,2.61751
10.791,1.42089,-2.7557,1.17279,0.0641256,0.163534,2.61333,0.932884,-0.513771,1.2,-0.588017,-1.61814,0.00626383,0.218804,0.823175,0,2.29458,2.57119
10.8236,1.47588,-2.71333,1.17267,0.0597268,0.161939,2.60571,0.941221,-0.481311,1.2,-0.505962,-1.62341,0.0172386,0.19826,0.79962,0,2.29532,2.52335
10.8583,1.51813,-2.67881,1.17249,0.0550073,0.160335,2.59702,0.945094,-0.465411,1.2,-0.437905,-1.62631,0.0227544,0.188456,0.787613,0,2.28654,2.49397
10.8902,1.55884,-2.64381,1.17221,0.0524927,0.159602,2.59255,0.952302,-0.434185,1.2,-0.377334,-1.62457,0.0308055,0.169708,0.763087,0,2.29153,2.44971
10.9232,1.59784,-2.60776,1.17203,0.0472332,0.157335,2.58198,0.958693,-0.404378,1.2,-0.309762,-1.62306,0.0355223,0.152454,0.738442,0,2.29438,2.40658
10.9588,1.6352,-2.57077,1.17191,0.0428221,0.155539,2.5735,0.961661,-0.389725,1.2,-0.246823,-1.62,0.0373429,0.144207,0.725856,0,2.28284,2.37852
10.9906,1.67092,-2.53283,1.17178,0.0397202,0.154355,2.56777,0.967113,-0.3612,1.2,-0.188026,-1.61576,0.0418009,0.128609,0.700409,0,2.283,2.33809
11.0223,1.70506,-2.49405,1.17178,0.0349588,0.152678,2.5587,0.971963,-0.333709,1.2,-0.126936,-1.60958,0.0448735,0.114163,0.674613,0,2.28151,2.29732
11.058,1.74557,-2.4444,1.17178,0.0293035,0.150724,2.54797,0.974189,-0.320279,1.2,-0.0496513,-1.60179,0.0459674,0.107321,0.661521,0,2.26003,2.26922
11.0898,1.77621,-2.4038,1.17181,0.0262348,0.150031,2.54264,0.978213,-0.294406,1.2,0.00545117,-1.59144,0.0489408,0.0945507,0.635317,0,2.25547,2.22908
11.1216,1.80528,-2.36252,1.17191,0.0191128,0.14911,2.531,0.981756,-0.269527,1.2,0.0692609,-1.57847,0.0471276,0.0827977,0.608788,0,2.24936,2.18781
11.1575,1.83283,-2.32059,1.17203,0.0111616,0.147504,2.51884,0.983356,-0.257485,1.2,0.133029,-1.56701,0.0454587,0.077301,0.595434,0,2.23132,2.16364
11.1893,1.85886,-2.27805,1.17218,0.00727663,0.146659,2.51263,0.986241,-0.234193,1.2,0.186592,-1.55098,0.046706,0.0670369,0.568554,0,2.22252,2.12342
11.2216,1.8834,-2.23495,1.17233,-0.000621781,0.144983,2.49987,0.988734,-0.211987,1.2,0.248966,-1.53323,0.0442465,0.0577199,0.541493,0,2.21214,2.08399
11.2569,1.91148,-2.18119,1.17239,-0.0092179,0.142614,2.48673,0.989847,-0.201267,1.2,0.31849,-1.50431,0.040512,0.0533923,0.52787,0,2.18409,2.0498
11.2888,1.93168,-2.1386,1.17242,-0.0140804,0.141407,2.47979,0.991817,-0.180733,1.2,0.369941,-1.47856,0.0401231,0.0454261,0.500631,0,2.17194,2.00602
11.3207,1.95041,-2.0956,1.17252,-0.0240097,0.138453,2.46609,0.993489,-0.161254,1.2,0.427994,-1.4504,0.0344632,0.0382786,0.473215,0,2.15828,1.96299
11.3572,1.96773,-2.05231,1.1727,-0.0338663,0.135382,2.45229,0.994221,-0.151935,1.2,0.484685,-1.41859,0.0276841,0.0350065,0.459478,0,2.13539,1.93135
11.389,1.98362,-2.00875,1.17291,-0.0389478,0.13373,2.44507,0.995499,-0.134097,1.2,0.530293,-1.38881,0.0274604,0.0290231,0.431894,0,2.11931,1.88865
11.4209,1.99806,-1.96506,1.17319,-0.0485109,0.130653,2.43049,0.996552,-0.117381,1.2,0.58262,-1.35041,0.0220107,0.0237671,0.404258,0,2.10182,1.84165
11.4569,2.01406,-1.91035,1.17355,-0.0579861,0.126308,2.41545,0.997004,-0.109422,1.2,0.642897,-1.30107,0.01824,0.0213905,0.390386,0,2.06844,1.80211
11.4891,2.02519,-1.86659,1.17383,-0.0629621,0.124008,2.40768,0.997772,-0.0943696,1.2,0.685514,-1.26137,0.017253,0.017131,0.362657,0,2.04867,1.75627
11.521,2.03481,-1.82293,1.17416,-0.0724927,0.118676,2.39205,0.998382,-0.0804226,1.2,0.734099,-1.21267,0.0106516,0.0134766,0.334873,0,2.02761,1.70713
11.5577,2.04297,-1.77942,1.17453,-0.0820858,0.112701,2.37608,0.998636,-0.0738604,1.2,0.781195,-1.16465,0.00438655,0.011861,0.320954,0,2.00005,1.673
11.5889,2.04969,-1.73609,1.17493,-0.0864965,0.109707,2.36818,0.999054,-0.061507,1.2,0.815213,-1.12014,0.0025337,0.00901311,0.292937,0,1.97705,1.62689
11.6216,2.05614,-1.68236,1.17538,-0.0949393,0.103161,2.35174,0.999364,-0.050415,1.2,0.860372,-1.05617,-0.00118399,0.0066883,0.265246,0,1.94439,1.57318
11.6568,2.0591,-1.63955,1.17563,-0.102586,0.0958285,2.33487,0.999488,-0.0452306,1.2,0.898829,-0.998706,-0.0065469,0.00568356,0.251251,0,1.91448,1.53628
11.6899,2.06013,-1.59694,1.17584,-0.106385,0.092015,2.32651,0.99968,-0.0357538,1.2,0.925341,-0.946535,-0.00551165,0.00399437,0.223402,0,1.88744,1.48918
11.7216,2.05982,-1.55492,1.17603,-0.113379,0.0837582,2.3094,0.999813,-0.0273716,1.2,0.958908,-0.883178,-0.00948787,0.00267553,0.195479,0,1.85946,1.44152
11.7575,2.05815,-1.5135,1.17624,-0.118404,0.0761596,2.2917,0.999861,-0.0236065,1.2,0.989069,-0.820629,-0.0122347,0.00214292,0.181541,0,1.82766,1.4066
11.7895,2.05523,-1.4727,1.17642,-0.120392,0.0722179,2.28263,0.999929,-0.0169024,1.2,1.00769,-0.766305,-0.0102268,0.00129831,0.153619,0,1.79821,1.36352
11.8214,2.04977,-1.42271,1.17676,-0.124966,0.0640539,2.26402,0.999968,-0.0113156,1.2,1.0346,-0.68725,-0.010893,0.000711164,0.125694,0,1.75916,1.31527
11.857,2.04396,-1.38354,1.17703,-0.129229,0.054872,2.24484,0.99998,-0.00894072,1.2,1.05447,-0.61987,-0.0117324,0.000499475,0.111729,0,1.72625,1.28305
11.8889,2.03693,-1.34519,1.1774,-0.131199,0.0503133,2.23546,0.999994,-0.00503074,1.2,1.06457,-0.562014,-0.00986073,0.000210815,0.0838105,0,1.69462,1.24501
11.9209,2.02873,-1.30765,1.1777,-0.134161,0.0400891,2.2141,0.999999,-0.00223718,1.2,1.07758,-0.493159,-0.0135884,6.25181e-05,0.05589,0,1.6622,1.20942
11.9568,2.01939,-1.27103,1.17795,-0.134453,0.0321693,2.19625,1,-0.00125822,1.2,1.08442,-0.424529,-0.0124802,2.63688e-05,0.0419143,0,1.62849,1.18052
11.9887,2.00611,-1.2266,1.17822,-0.134243,0.0278848,2.18607,1,-0.000140175,1.2,1.08436,-0.353509,-0.00752729,9.80527e-07,0.01399,0,1.58649,1.14497
12.0207,1.99731,-1.20068,1.17841,-0.133708,0.0190434,2.16565,1,-4.89859e-16,1.2,1.08762,-0.297527,-0.0073133,0,0,0,1.561,1.1276
12.0565,1.98083,-1.15837,1.17868,-0.132651,0.00826101,2.14322,1,-4.89859e-16,1.2,1.0876,-0.21739,-0.00892906,0,0,0,1.518,1.10915
12.0885,1.96597,-1.12538,1.17896,-0.132203,0.00442452,2.13489,1,-4.89859e-16,1.2,1.07842,-0.166,-0.00932579,0,0,0,1.48325,1.09116
12.1204,1.95034,-1.09346,1.17917,-0.129858,-0.00459532,2.11375,1,-4.89859e-16,1.2,1.06745,-0.101547,-0.0110773,0,0,0,1.44887,1.07233
12.1562,1.93394,-1.06261,1.17941,-0.126536,-0.0128337,2.09224,1,-4.89859e-16,1.2,1.05552,-0.0378571,-0.0131298,0,0,0,1.41485,1.05628
12.1882,1.91675,-1.03281,1.1796,-0.124583,-0.0166592,2.08117,1,-4.89859e-16,1.2,1.04218,0.0146937,-0.0127037,0,0,0,1.38114,1.04236
12.2209,1.89878,-1.00411,1.17972,-0.120366,-0.0239997,2.05912,1,-4.89859e-16,1.2,1.02229,0.0765743,-0.0137854,0,0,0,1.34776,1.02525
12.2574,1.8754,-0.96978,1.17984,-0.115681,-0.0315304,2.03693,1,-4.89859e-16,1.2,0.995555,0.142828,-0.0126328,0,0,0,1.3066,1.00583
12.2892,1.85602,-0.943565,1.17993,-0.112444,-0.0357318,2.02332,1,-4.89859e-16,1.2,0.970972,0.189642,-0.0125604,0,0,0,1.27416,0.989398
12.3212,1.83607,-0.918463,1.17999,-0.107448,-0.0422735,2.00283,1,-4.89859e-16,1.2,0.943131,0.240891,-0.0111729,0,0,0,1.24217,0.973473
12.3577,1.81566,-0.894545,1.18005,-0.101441,-0.0506239,1.97983,1,-4.89859e-16,1.2,0.908966,0.292119,-0.0162697,0,0,0,1.21075,0.954892
12.389,1.79487,-0.871792,1.18005,-0.0982581,-0.0546153,1.96823,1,-4.89859e-16,1.2,0.877525,0.327754,-0.0173894,0,0,0,1.17993,0.936897
12.4219,1.77371,-0.85014,1.18005,-0.0920036,-0.0621393,1.94459,1,-4.89859e-16,1.2,0.843528,0.373614,-0.0191506,0,0,0,1.14968,0.922764
12.4568,1.74562,-0.825009,1.17999,-0.0865007,-0.0703867,1.92059,1,-4.89859e-16,1.2,0.794898,0.422088,-0.0168035,0,0,0,1.1122,0.900169
12.4889,1.72156,-0.806573,1.17993,-0.083588,-0.0748335,1.9087,1,-4.89859e-16,1.2,0.760001,0.45269,-0.0150147,0,0,0,1.08241,0.884735
12.5207,1.69749,-0.789256,1.17996,-0.0777461,-0.0840306,1.88434,1,-4.89859e-16,1.2,0.714965,0.488732,-0.0141039,0,0,0,1.05348,0.866159
12.5566,1.67339,-0.773092,1.18011,-0.0718099,-0.0929839,1.86016,1,-4.89859e-16,1.2,0.669412,0.524732,-0.015496,0,0,0,1.02544,0.850703
12.5886,1.64922,-0.758128,1.18021,-0.068549,-0.0965294,1.84812,1,-4.89859e-16,1.2,0.628484,0.549943,-0.0147574,0,0,0,0.998315,0.835252
12.6206,1.61904,-0.741093,1.18033,-0.0614777,-0.101374,1.8236,1,-4.89859e-16,1.2,0.568621,0.579724,-0.0146795,0,0,0,0.965823,0.812173
12.6565,1.59505,-0.728837,1.18036,-0.0534251,-0.103286,1.79907,1,-4.89859e-16,1.2,0.516573,0.602344,-0.016166,0,0,0,0.941102,0.79368
12.6885,1.57116,-0.717754,1.18036,-0.0493564,-0.103082,1.78687,1,-4.89859e-16,1.2,0.474322,0.617975,-0.0134579,0,0,0,0.917486,0.779137
12.7205,1.54743,-0.707752,1.18045,-0.0388163,-0.100876,1.76231,1,-4.89859e-16,1.2,0.425476,0.631201,-0.0137176,0,0,0,0.894972,0.761336
12.7564,1.52401,-0.69882,1.18051,-0.0223231,-0.0958474,1.7379,1,-4.89859e-16,1.2,0.377492,0.63967,-0.0184789,0,0,0,0.873681,0.74298
12.7884,1.50097,-0.690852,1.18054,-0.0129581,-0.0920166,1.72584,1,-4.89859e-16,1.2,0.337565,0.640372,-0.0218947,0,0,0,0.853599,0.724228
12.8203,1.47831,-0.683832,1.18054,0.00358352,-0.0820351,1.70197,1,-4.89859e-16,1.2,0.293365,0.641958,-0.0249964,0,0,0,0.834734,0.706256
12.8565,1.44942,-0.6765,1.18042,0.0119525,-0.0702806,1.67874,1,-4.89859e-16,1.2,0.24697,0.639731,-0.0231363,0,0,0,0.812413,0.686138
12.8884,1.42558,-0.671731,1.18015,0.0139693,-0.0638131,1.66709,1,-4.89859e-16,1.2,0.218838,0.632573,-0.0217899,0,0,0,0.795445,0.669711
12.9204,1.40238,-0.667491,1.17987,0.0162961,-0.051286,1.64438,1,-4.89859e-16,1.2,0.186508,0.628419,-0.0182514,0,0,0,0.779653,0.655766
12.9574,1.37978,-0.663682,1.17966,0.0140237,-0.0404254,1.62183,1,-4.89859e-16,1.2,0.156982,0.620847,-0.013391,0,0,0,0.76493,0.640526
12.9894,1.35779,-0.660276,1.17953,0.0131999,-0.0358703,1.61074,1,-4.89859e-16,1.2,0.138701,0.61109,-0.00917485,0,0,0,0.751262,0.6267
13.0219,1.33642,-0.657149,1.17947,0.0151757,-0.0286845,1.58859,1,-4.89859e-16,1.2,0.11412,0.600805,-0.00614126,0,0,0,0.738542,0.611578
13.0577,1.3104,-0.653648,1.1796,0.0163114,-0.0238876,1.56686,1,-4.89859e-16,1.2,0.0892348,0.594805,-0.001724,0,0,0,0.723892,0.601464
13.0897,1.29001,-0.651176,1.17981,0.0125794,-0.0227754,1.55395,1,-4.89859e-16,1.2,0.0718749,0.589125,0.00467436,0,0,0,0.713121,0.593511
13.1223,1.26992,-0.648938,1.18018,0.000202387,-0.0226344,1.53481,1,-4.89859e-16,1.2,0.0529819,0.586286,0.0146819,0,0,0,0.703114,0.588858
13.1581,1.25007,-0.646886,1.1806,-0.016746,-0.0231165,1.51415,1,-4.89859e-16,1.2,0.0357748,0.58371,0.0267324,0,0,0,0.693812,0.585416
13.1912,1.23043,-0.645029,1.18106,-0.0232109,-0.023944,1.50378,1,-4.89859e-16,1.2,0.0221414,0.582033,0.0316417,0,0,0,0.685215,0.583313
13.223,1.21092,-0.643398,1.18152,-0.0292475,-0.0261386,1.48389,1,-4.89859e-16,1.2,0.00256785,0.58228,0.0349144,0,0,0,0.677342,0.583332
13.2627,1.18552,-0.644184,1.18185,-0.0307728,-0.0280015,1.4649,1,-4.89859e-16,1.2,-0.0193357,0.586419,0.0352329,0,0,0,0.67061,0.587795
13.2941,1.164,-0.647758,1.18192,-0.0310368,-0.0289639,1.4557,1,-4.89859e-16,1.2,-0.0350183,0.591355,0.0344853,0,0,0,0.668442,0.593394
13.3257,1.14258,-0.651201,1.18201,-0.0319273,-0.030341,1.43814,1,-4.89859e-16,1.2,-0.0555279,0.593902,0.0352299,0,0,0,0.666871,0.597532
13.362,1.1212,-0.654493,1.18216,-0.0367748,-0.0302985,1.42176,1,-4.89859e-16,1.2,-0.07303,0.599535,0.0381253,0,0,0,0.66586,0.605169
13.3927,1.09982,-0.657652,1.18234,-0.0399095,-0.0292798,1.41403,1,-4.89859e-16,1.2,-0.0863725,0.604685,0.0386179,0,0,0,0.665418,0.612042
13.4243,1.0784,-0.660692,1.18246,-0.0456843,-0.0256105,1.39922,1,-4.89859e-16,1.2,-0.100896,0.611374,0.0395682,0,0,0,0.665558,0.620905
13.4601,1.05141,-0.664249,1.18256,-0.0526087,-0.0202102,1.38521,1,-4.89859e-16,1.2,-0.116922,0.620867,0.0431616,0,0,0,0.666464,0.633253
13.4916,1.0297,-0.666935,1.18265,-0.0555494,-0.0174291,1.3785,1,-4.89859e-16,1.2,-0.125132,0.626641,0.0461786,0,0,0,0.667821,0.640679
13.5244,1.0079,-0.669442,1.1828,-0.0569868,-0.0124682,1.36626,1,-4.89859e-16,1.2,-0.136005,0.631716,0.0466774,0,0,0,0.66971,0.647874
13.5601,0.986048,-0.671756,1.18295,-0.0492874,-0.0082648,1.35448,1,-4.89859e-16,1.2,-0.144787,0.635781,0.0409217,0,0,0,0.672117,0.653342
13.5917,0.964204,-0.673839,1.18314,-0.0430319,-0.00669605,1.34882,1,-4.89859e-16,1.2,-0.147373,0.636961,0.0366471,0,0,0,0.675,0.654814
13.6235,0.942406,-0.675683,1.18332,-0.0260958,-0.00354574,1.33798,1,-4.89859e-16,1.2,-0.152639,0.637487,0.0258952,0,0,0,0.678339,0.656018
13.6591,0.915368,-0.68077,1.18341,-0.00333759,-0.000493935,1.32805,1,-4.89859e-16,1.2,-0.157613,0.629223,0.011548,0,0,0,0.686211,0.648766
13.6913,0.894041,-0.688006,1.18323,0.00941037,0.00138171,1.32324,1,-4.89859e-16,1.2,-0.159964,0.61703,0.00345148,0,0,0,0.696319,0.637438
13.7236,0.873312,-0.694627,1.18317,0.0356877,0.00592431,1.31351,1,-4.89859e-16,1.2,-0.16356,0.597505,-0.00860992,0,0,0,0.706286,0.619547
13.7593,0.853296,-0.700725,1.18326,0.060141,0.0108322,1.30402,1,-4.89859e-16,1.2,-0.166363,0.573721,-0.0201444,0,0,0,0.716113,0.597694
13.7911,0.834136,-0.706379,1.18338,0.0701954,0.0130502,1.29917,1,-4.89859e-16,1.2,-0.164464,0.545564,-0.0248061,0,0,0,0.725781,0.570354
13.8229,0.816061,-0.711624,1.18353,0.0869157,0.0172989,1.28996,1,-4.89859e-16,1.2,-0.16135,0.509701,-0.0305989,0,0,0,0.735196,0.535504
13.8586,0.795228,-0.717673,1.18381,0.10324,0.02166,1.28047,1,-4.89859e-16,1.2,-0.155942,0.460423,-0.0327613,0,0,0,0.746491,0.487217
13.8928,0.780043,-0.722155,1.18414,0.112778,0.023666,1.27436,1,-4.89859e-16,1.2,-0.150308,0.421103,-0.0310583,0,0,0,0.755076,0.448202
13.9242,0.76617,-0.726374,1.18448,0.12065,0.0252248,1.26511,1,-4.89859e-16,1.2,-0.145341,0.380501,-0.0318798,0,0,0,0.763241,0.40856
13.9608,0.753571,-0.730349,1.18475,0.119132,0.0263171,1.25457,1,-4.89859e-16,1.2,-0.140437,0.340447,-0.0312994,0,0,0,0.770953,0.369603
13.9935,0.742299,-0.734143,1.18494,0.116217,0.0269006,1.24928,1,-4.89859e-16,1.2,-0.132857,0.300602,-0.0300808,0,0,0,0.778204,0.330026
14.0254,0.732263,-0.737711,1.18497,0.105827,0.0279258,1.23835,1,-4.89859e-16,1.2,-0.125144,0.265062,-0.0290571,0,0,0,0.784938,0.294556
14.0614,0.719033,-0.744466,1.18448,0.0870937,0.0288324,1.22717,1,-4.89859e-16,1.2,-0.117518,0.225586,-0.0251081,0,0,0,0.795873,0.255597
14.0925,0.707173,-0.752468,1.18362,0.0766446,0.0293731,1.22145,1,-4.89859e-16,1.2,-0.110036,0.197806,-0.0203147,0,0,0,0.807603,0.227262
