timestamp,drone_x,drone_y,drone_z,drone_roll,drone_pitch,drone_yaw,target_x,target_y,target_z,drone_vx,drone_vy,drone_vz,target_vx,target_vy,target_vz,distance_error,velocity_error
0.00683472,0.0583321,0.00742706,1.20343,0.00326843,-0.00334806,0.000149967,1,0,1.2,-0.0387821,0.0185773,-0.004767,0,0,0,0.941703,0.0432653
0.0385712,0.0605837,0.00796626,1.20325,0.00312335,-0.00311342,0.000190531,1,0,1.2,-0.0382211,0.0162937,-0.00715533,0,0,0,0.939456,0.0421609
0.0704768,0.0625723,0.00842478,1.20297,0.00299855,-0.00338741,0.000275451,1,0,1.2,-0.035452,0.0160174,-0.00883111,0,0,0,0.93747,0.0398923
0.106534,0.0643215,0.0088298,1.20276,0.00486576,-0.00268657,0.000466438,1,0,1.2,-0.033313,0.0105877,-0.000242591,0,0,0,0.935724,0.0349559
0.138124,0.0659081,0.00891234,1.20319,0.0148543,0.000895639,0.000474074,1,0,1.2,-0.0290508,-0.00433183,0.0256694,0,0,0,0.93414,0.0390081
0.169783,0.0674212,0.00848884,1.20441,0.0467319,0.0120296,0.000265539,1,0,1.2,-0.0248953,-0.0194796,0.0476383,0,0,0,0.932628,0.057172
0.205515,0.0693474,0.00709018,1.20673,0.0907288,0.028598,0.000339821,1,0,1.2,-0.0127297,-0.0450747,0.0682708,0,0,0,0.930704,0.082793
0.237281,0.0711149,0.00499197,1.20895,0.112201,0.0376409,0.000369231,1,0,1.2,-0.000335594,-0.0751429,0.0788686,0,0,0,0.928942,0.108935
0.269152,0.0731688,0.00174301,1.21118,0.153544,0.0577642,0.000424407,1,0,1.2,0.0149829,-0.111778,0.0864633,0,0,0,0.9269,0.142108
0.304938,0.0756226,-0.00287915,1.21317,0.181149,0.0716473,7.14082e-05,1,0,1.2,0.0320331,-0.155503,0.0871263,0,0,0,0.924476,0.181103
0.336761,0.0785174,-0.00901069,1.2146,0.188987,0.0751693,-0.0004539,1,0,1.2,0.0538509,-0.205852,0.0825388,0,0,0,0.921642,0.228227
0.368775,0.0819437,-0.01674,1.21542,0.199482,0.0786334,-0.00256569,1,0,1.2,0.0762507,-0.260424,0.0774366,0,0,0,0.918338,0.28219
0.404679,0.0874989,-0.026544,1.21524,0.198479,0.0752581,-0.00548659,1,0,1.2,0.103864,-0.328391,0.0678368,0,0,0,0.913014,0.351041
0.436356,0.0927496,-0.0352809,1.21426,0.194613,0.07201,-0.00692555,1,0,1.2,0.124209,-0.380822,0.0629424,0,0,0,0.908048,0.405482
0.46927,0.0983865,-0.0458376,1.21292,0.182201,0.0636813,-0.00948166,1,0,1.2,0.142152,-0.431271,0.0552346,0,0,0,0.90287,0.457441
0.505078,0.104381,-0.0580961,1.21133,0.165454,0.0554619,-0.0111618,1,0,1.2,0.160791,-0.476053,0.0474732,0,0,0,0.897573,0.504712
0.53764,0.110738,-0.0718534,1.20953,0.155899,0.0521617,-0.0114327,1,0,1.2,0.175568,-0.516793,0.0437899,0,0,0,0.892211,0.547556
0.568819,0.117351,-0.0869985,1.20761,0.133792,0.04373,-0.0109188,1,0,1.2,0.186691,-0.553899,0.0331455,0,0,0,0.886959,0.585454
0.604775,0.125927,-0.107604,1.20517,0.107821,0.0335374,-0.0091082,1,0,1.2,0.195671,-0.591243,0.0195126,0,0,0,0.880686,0.623086
0.63642,0.132868,-0.12512,1.20322,0.0940257,0.028017,-0.00750634,1,0,1.2,0.200008,-0.613451,0.0141401,0,0,0,0.876118,0.645388
0.669457,0.139862,-0.143358,1.20142,0.0654106,0.0169381,-0.00303204,1,0,1.2,0.199524,-0.629555,-0.00235728,0,0,0,0.872004,0.66042
0.704982,0.146817,-0.162055,1.1998,0.0327765,0.00509377,0.00390758,1,0,1.2,0.195561,-0.637087,-0.0200599,0,0,0,0.868438,0.666728
0.736807,0.153704,-0.180918,1.19836,0.0209312,0.00109424,0.00697088,1,0,1.2,0.192093,-0.635697,-0.0203576,0,0,0,0.86542,0.664398
0.768644,0.160469,-0.199747,1.19727,-0.00902538,-0.00764604,0.0153591,1,0,1.2,0.184065,-0.628489,-0.0328862,0,0,0,0.862971,0.655713
0.804881,0.169716,-0.220465,1.19601,-0.038124,-0.0159201,0.0259443,1,0,1.2,0.170095,-0.606828,-0.0399854,0,0,0,0.859064,0.631484
0.836505,0.17732,-0.235359,1.19513,-0.0518614,-0.0195209,0.0320415,1,0,1.2,0.161495,-0.583291,-0.0403331,0,0,0,0.855698,0.606577
0.868928,0.184569,-0.249751,1.19446,-0.0743386,-0.0232394,0.0448032,1,0,1.2,0.149389,-0.555425,-0.048679,0,0,0,0.852839,0.57722
0.904606,0.191451,-0.26357,1.19385,-0.0889244,-0.0211093,0.0578947,1,0,1.2,0.134824,-0.527411,-0.0509632,0,0,0,0.850446,0.546751
0.936344,0.197892,-0.276631,1.19336,-0.093705,-0.0188335,0.0646841,1,0,1.2,0.123712,-0.492113,-0.0477434,0,0,0,0.848496,0.509666
0.968336,0.203934,-0.28883,1.19296,-0.0983701,-0.0143182,0.078635,1,0,1.2,0.111356,-0.457383,-0.0446662,0,0,0,0.846873,0.472858
1.00417,0.211003,-0.302809,1.19254,-0.0984839,-0.0101726,0.0930005,1,0,1.2,0.0995312,-0.413406,-0.0397018,0,0,0,0.845142,0.427068
1.036,0.216267,-0.312935,1.19217,-0.0980983,-0.00917951,0.102015,1,0,1.2,0.0911575,-0.377614,-0.0347829,0,0,0,0.843935,0.390016
1.06837,0.221199,-0.322164,1.19189,-0.0966876,-0.00998203,0.116026,1,0,1.2,0.0833014,-0.345609,-0.0286105,0,0,0,0.842844,0.356655
1.10601,0.225914,-0.330582,1.19165,-0.0894867,-0.00984503,0.131763,1,0,1.2,0.078682,-0.31649,-0.0210911,0,0,0,0.841762,0.326805
1.13772,0.23042,-0.338256,1.1915,-0.0839661,-0.00872958,0.139602,1,0,1.2,0.0742708,-0.288402,-0.0168684,0,0,0,0.84068,0.298289
1.16952,0.234599,-0.34519,1.19141,-0.070849,-0.00630972,0.155352,1,0,1.2,0.0647076,-0.260854,-0.00912565,0,0,0,0.839684,0.268915
1.20532,0.241561,-0.356196,1.19144,-0.05996,-0.00751514,0.171545,1,0,1.2,0.0561375,-0.232325,-0.00261086,0,0,0,0.837961,0.239025
1.23707,0.247797,-0.36582,1.19153,-0.0547988,-0.00852231,0.18052,1,0,1.2,0.0520798,-0.213471,0.00112002,0,0,0,0.836484,0.219734
1.26905,0.253548,-0.374709,1.19171,-0.0421085,-0.00901711,0.198351,1,0,1.2,0.0456287,-0.20216,0.00617254,0,0,0,0.835264,0.207337
1.30478,0.258881,-0.383019,1.19186,-0.025963,-0.00539834,0.216248,1,0,1.2,0.0405293,-0.193286,0.00978044,0,0,0,0.834282,0.197731
1.33661,0.263806,-0.390878,1.19205,-0.0173125,-0.00190085,0.225291,1,0,1.2,0.036266,-0.184812,0.011778,0,0,0,0.833565,0.188705
1.36866,0.269567,-0.400146,1.19238,-0.0015455,0.00457594,0.244144,1,0,1.2,0.0318499,-0.179031,0.0150086,0,0,0,0.83289,0.18246
1.40438,0.273897,-0.407238,1.19269,0.00911367,0.00758174,0.263673,1,0,1.2,0.0299156,-0.177111,0.0164018,0,0,0,0.832539,0.180367
1.43629,0.278103,-0.414141,1.19299,0.0129727,0.0080567,0.273432,1,0,1.2,0.0312308,-0.177763,0.0168579,0,0,0,0.832284,0.181272
1.46818,0.282249,-0.420915,1.19327,0.0208273,0.00923017,0.295751,1,0,1.2,0.0294855,-0.180429,0.0182079,0,0,0,0.832094,0.183727
1.50406,0.286334,-0.427606,1.19357,0.0247186,0.00940999,0.314726,1,0,1.2,0.0286688,-0.184554,0.0181351,0,0,0,0.831989,0.187646
1.53687,0.290362,-0.434257,1.19382,0.0248255,0.00877403,0.325256,1,0,1.2,0.0286642,-0.189465,0.0166942,0,0,0,0.831988,0.192347
1.56882,0.294405,-0.440955,1.194,0.0249794,0.00783304,0.346408,1,0,1.2,0.0280548,-0.197096,0.0138757,0,0,0,0.832071,0.199565
1.60467,0.301216,-0.44924,1.19376,0.0271453,0.00828198,0.368399,1,0,1.2,0.0262449,-0.205988,0.0105027,0,0,0,0.830755,0.207919
1.63665,0.307446,-0.45591,1.19336,0.0288081,0.0094797,0.37966,1,0,1.2,0.0286636,-0.21377,0.0092048,0,0,0,0.829174,0.215879
1.66841,0.313611,-0.462667,1.19299,0.0339801,0.0139102,0.402551,1,0,1.2,0.0275835,-0.222614,0.0116989,0,0,0,0.827792,0.224622
1.70439,0.319755,-0.469539,1.19269,0.0390341,0.0195429,0.425646,1,0,1.2,0.028842,-0.232705,0.0134416,0,0,0,0.826592,0.23487
1.73626,0.325962,-0.476518,1.19244,0.0404007,0.0218391,0.437579,1,0,1.2,0.0316421,-0.240526,0.0138845,0,0,0,0.825502,0.242996
1.76812,0.332217,-0.483594,1.19223,0.0409714,0.0239151,0.461282,1,0,1.2,0.0319823,-0.250073,0.0147122,0,0,0,0.824535,0.252538
1.80419,0.340292,-0.492568,1.19196,0.0401463,0.0241009,0.485744,1,0,1.2,0.0367099,-0.261338,0.0131668,0,0,0,0.823349,0.264232
1.83614,0.346963,-0.49983,1.19168,0.0394519,0.0236856,0.498245,1,0,1.2,0.0412636,-0.271509,0.0135075,0,0,0,0.822409,0.274959
1.868,0.353831,-0.507211,1.19153,0.0386617,0.0231825,0.526317,1,0,1.2,0.0412567,-0.281994,0.0132114,0,0,0,0.821505,0.285302
1.9039,0.360841,-0.514669,1.19141,0.0348616,0.0210815,0.551966,1,0,1.2,0.0384209,-0.288812,0.0112159,0,0,0,0.820659,0.291572
1.93598,0.367894,-0.522126,1.19125,0.0326242,0.0197408,0.56233,1,0,1.2,0.0418399,-0.294891,0.0114711,0,0,0,0.819909,0.298065
1.96779,0.375046,-0.52959,1.19116,0.0281275,0.0176742,0.587999,1,0,1.2,0.038784,-0.301691,0.0104191,0,0,0,0.819213,0.304352
2.00374,0.384505,-0.538921,1.1907,0.0269309,0.0175899,0.614018,1,0,1.2,0.0359709,-0.312872,0.0110825,0,0,0,0.818142,0.315128
2.03672,0.392392,-0.546457,1.19025,0.0278936,0.0181663,0.627016,1,0,1.2,0.0368233,-0.319465,0.0124857,0,0,0,0.81725,0.321822
2.06857,0.400415,-0.554015,1.18988,0.0311236,0.0202795,0.653359,1,0,1.2,0.0335003,-0.325307,0.0141282,0,0,0,0.816417,0.327332
2.10442,0.408552,-0.561619,1.18964,0.0334964,0.0220787,0.680421,1,0,1.2,0.0291524,-0.33287,0.0169156,0,0,0,0.81568,0.334572
2.13649,0.416879,-0.569249,1.18945,0.0349608,0.0233376,0.694302,1,0,1.2,0.0330552,-0.339376,0.0181577,0,0,0,0.814976,0.341465
2.1682,0.425491,-0.576892,1.18927,0.0392613,0.0260925,0.72217,1,0,1.2,0.0324969,-0.348398,0.0205426,0,0,0,0.814236,0.350513
2.20414,0.436642,-0.586459,1.18903,0.043883,0.0288512,0.75033,1,0,1.2,0.0322027,-0.359611,0.022583,0,0,0,0.813281,0.361755
2.23648,0.445944,-0.594152,1.18887,0.0463481,0.0300243,0.764741,1,0,1.2,0.0352988,-0.369083,0.0268206,0,0,0,0.812477,0.371736
2.26832,0.455615,-0.601874,1.18881,0.0519127,0.0320155,0.793508,1,0,1.2,0.0340525,-0.380324,0.0304521,0,0,0,0.811623,0.383058
2.30424,0.465707,-0.609606,1.1889,0.0585712,0.0353338,0.822757,1,0,1.2,0.0344801,-0.394291,0.0361764,0,0,0,0.810686,0.397445
2.33659,0.4763,-0.617353,1.18906,0.0628841,0.0378627,0.837486,1,0,1.2,0.0401358,-0.408079,0.0423527,0,0,0,0.809634,0.412229
2.36807,0.487463,-0.625131,1.18939,0.0724757,0.043414,0.867074,1,0,1.2,0.0406761,-0.425493,0.0502569,0,0,0,0.808453,0.430378
2.40403,0.50351,-0.635065,1.18988,0.079157,0.0478645,0.896027,1,0,1.2,0.0446987,-0.448392,0.0561,0,0,0,0.806172,0.454093
2.4361,0.517613,-0.643061,1.19019,0.0810511,0.0492512,0.910346,1,0,1.2,0.0527283,-0.464655,0.0563797,0,0,0,0.803941,0.471024
2.46785,0.532248,-0.651004,1.19043,0.0796424,0.048698,0.938584,1,0,1.2,0.0529962,-0.484511,0.055089,0,0,0,0.801679,0.490504
2.50377,0.547429,-0.658913,1.19064,0.0733484,0.045093,0.969143,1,0,1.2,0.0500393,-0.50307,0.0516166,0,0,0,0.799421,0.508181
2.5364,0.563109,-0.666774,1.1908,0.0703218,0.0433843,0.980333,1,0,1.2,0.057468,-0.520937,0.048035,0,0,0,0.797211,0.526294
2.56826,0.579264,-0.674573,1.19089,0.0624679,0.0393359,1.00813,1,0,1.2,0.0532617,-0.536383,0.0429048,0,0,0,0.795079,0.540726
2.60427,0.600042,-0.684193,1.19101,0.0544661,0.0358155,1.03576,1,0,1.2,0.0513146,-0.551806,0.0382838,0,0,0,0.79257,0.555507
2.63624,0.616966,-0.691729,1.1911,0.0495323,0.0335319,1.04945,1,0,1.2,0.0533703,-0.557247,0.035533,0,0,0,0.790748,0.560923
2.66809,0.633994,-0.699034,1.19122,0.0328938,0.0256078,1.07942,1,0,1.2,0.0434071,-0.559249,0.0267955,0,0,0,0.789105,0.561571
2.70404,0.651038,-0.706195,1.19138,0.0147347,0.017052,1.10413,1,0,1.2,0.0345288,-0.559971,0.0186787,0,0,0,0.787757,0.561345
2.73647,0.667954,-0.713177,1.19162,0.00364424,0.0118832,1.11832,1,0,1.2,0.0302536,-0.554096,0.0157982,0,0,0,0.786731,0.555146
2.76913,0.684541,-0.719991,1.19189,-0.0189958,0.00243035,1.14705,1,0,1.2,0.0132668,-0.543535,0.00540863,0,0,0,0.786109,0.543723
2.805,0.705405,-0.728379,1.19214,-0.0380373,-0.00471896,1.17595,1,0,1.2,-0.00312745,-0.526468,-0.00494136,0,0,0,0.785738,0.526501
2.83698,0.721889,-0.734928,1.19217,-0.0438502,-0.00618888,1.19053,1,0,1.2,-0.0104223,-0.509529,-0.00850435,0,0,0,0.785829,0.509706
2.86866,0.737679,-0.741266,1.19229,-0.0474027,-0.00479451,1.21973,1,0,1.2,-0.0271148,-0.489905,-0.00789393,0,0,0,0.78635,0.490719
2.90446,0.752766,-0.747461,1.19247,-0.0438061,0.000217875,1.24954,1,0,1.2,-0.0438069,-0.470325,-0.00572324,0,0,0,0.787324,0.472395
2.93646,0.767171,-0.753485,1.19263,-0.0413954,0.00285559,1.26464,1,0,1.2,-0.0505371,-0.45065,-0.0066193,0,0,0,0.788672,0.453523
2.96835,0.780928,-0.759329,1.19272,-0.0368323,0.00677068,1.29784,1,0,1.2,-0.0650161,-0.432141,-0.00660757,0,0,0,0.790333,0.437055
3.00435,0.797356,-0.766343,1.19275,-0.0335893,0.00927052,1.32549,1,0,1.2,-0.0720389,-0.411192,-0.00699423,0,0,0,0.792716,0.417513
3.03618,0.809878,-0.771694,1.19278,-0.0322496,0.0105623,1.34088,1.00017,0.000172093,1.2,-0.0763447,-0.392543,-0.00504354,0.0115517,0.0115517,0,0.79501,0.413575
3.06913,0.821833,-0.776801,1.19281,-0.0330291,0.0112558,1.37162,1.00045,0.000447126,1.2,-0.0831476,-0.373612,-0.00693971,0.01862,0.01862,0,0.797539,0.405279
3.10493,0.8332,-0.781675,1.19281,-0.0367016,0.0108765,1.40261,1.00138,0.00138322,1.2,-0.0908216,-0.353051,-0.00755692,0.0327498,0.0327499,0,0.800947,0.405178
3.13732,0.843986,-0.786324,1.19287,-0.0393181,0.0103389,1.41835,1.00284,0.00283917,1.2,-0.0913901,-0.334248,-0.00702313,0.0469201,0.0469202,0,0.805024,0.405547
3.16931,0.854175,-0.790753,1.19293,-0.0454422,0.00914791,1.44948,1.00376,0.00375699,1.2,-0.0985989,-0.313475,-0.00939831,0.0539738,0.053974,0,0.808499,0.397976
3.20679,0.86978,-0.796935,1.1929,-0.0517331,0.00803343,1.48049,1.00598,0.00598392,1.2,-0.102255,-0.288541,-0.0105549,0.0681168,0.0681177,0,0.814421,0.395403
3.23905,0.883247,-0.802104,1.19284,-0.0539005,0.00772101,1.49566,1.00873,0.0087264,1.2,-0.104693,-0.271767,-0.0100572,0.0822575,0.0822599,0,0.820513,0.400484
3.27117,0.895762,-0.80704,1.19278,-0.0555208,0.00782733,1.52639,1.01029,0.0102908,1.2,-0.109899,-0.252216,-0.0106192,0.0893266,0.0893301,0,0.825348,0.395547
3.30746,0.907358,-0.811806,1.19266,-0.0523775,0.00846342,1.55691,1.01381,0.0138101,1.2,-0.114637,-0.232554,-0.0138893,0.103478,0.103486,0,0.832483,0.400861
3.33922,0.91807,-0.816335,1.19238,-0.0476963,0.00879816,1.57479,1.01784,0.0178397,1.2,-0.114001,-0.215034,-0.0126943,0.117607,0.117621,0,0.840155,0.40554
3.37092,0.928001,-0.820678,1.19214,-0.0381383,0.00924668,1.6012,1.02005,0.0200492,1.2,-0.116023,-0.199211,-0.0117679,0.124676,0.124695,0,0.845788,0.40372
3.4078,0.939461,-0.825806,1.19177,-0.0245078,0.00916977,1.63029,1.02485,0.0248561,1.2,-0.114427,-0.183405,-0.0100136,0.138815,0.138847,0,0.854977,0.409973
3.43875,0.948074,-0.829678,1.19144,-0.0169929,0.0085649,1.64461,1.03017,0.0301762,1.2,-0.114403,-0.177782,-0.0096625,0.152943,0.152995,0,0.863807,0.425419
3.47058,0.956329,-0.833424,1.19107,-0.00086626,0.00704566,1.67254,1.03307,0.0330735,1.2,-0.117403,-0.171981,-0.00658469,0.160112,0.160178,0,0.869934,0.432883
3.50641,0.964272,-0.837054,1.19077,0.014679,0.00460023,1.69949,1.03912,0.0391254,1.2,-0.119677,-0.168718,-0.00182998,0.174134,0.174234,0,0.879419,0.451602
3.53819,0.972083,-0.84051,1.19046,0.0219986,0.00347387,1.71283,1.04572,0.0457349,1.2,-0.119314,-0.170984,0.000376695,0.18825,0.188398,0,0.88935,0.473024
3.57066,0.979854,-0.843822,1.19019,0.035282,0.00151789,1.73851,1.04922,0.049233,1.2,-0.121026,-0.174696,0.00471102,0.195306,0.195484,0,0.895798,0.486952
3.60707,0.992457,-0.847447,1.18964,0.0454903,0.000405783,1.76342,1.05659,0.0566163,1.2,-0.123791,-0.185084,0.00897992,0.209412,0.209664,0,0.906395,0.516654
3.63881,1.00396,-0.850064,1.18912,0.0498176,-0.000194164,1.77516,1.06448,0.0645144,1.2,-0.124633,-0.197497,0.0106507,0.223506,0.223856,0,0.916644,0.546674
3.6709,1.01545,-0.852541,1.18869,0.0561557,-0.00132761,1.79816,1.06861,0.0686548,1.2,-0.128894,-0.211151,0.0140725,0.230546,0.230954,0,0.922798,0.569958
3.7064,1.02711,-0.854842,1.18835,0.0594715,-0.00123266,1.82016,1.07727,0.0773241,1.2,-0.13209,-0.22808,0.0179318,0.244617,0.245167,0,0.933587,0.605139
3.7382,1.03896,-0.856967,1.18811,0.0603377,-0.000636416,1.83071,1.08643,0.0865077,1.2,-0.134111,-0.243117,0.020238,0.258671,0.259399,0,0.944743,0.638129
3.76998,1.05093,-0.858914,1.18793,0.0607386,0.00104112,1.85113,1.0912,0.0912949,1.2,-0.135861,-0.25494,0.0220797,0.265694,0.266527,0,0.951138,0.658529
3.80584,1.06608,-0.860979,1.18784,0.0591088,0.00458226,1.87024,1.10125,0.101385,1.2,-0.136342,-0.271231,0.022276,0.2799,0.280984,0,0.963083,0.691877
3.83767,1.07836,-0.862344,1.18777,0.0578523,0.00696527,1.87938,1.11154,0.111712,1.2,-0.135187,-0.285133,0.0223925,0.2937,0.295083,0,0.974697,0.72187
3.86964,1.09078,-0.863361,1.18774,0.0550987,0.0129631,1.89703,1.11693,0.117136,1.2,-0.131983,-0.298689,0.0213569,0.300683,0.30224,0,0.980923,0.740791
3.90542,1.10335,-0.864016,1.18777,0.0522634,0.0199415,1.91399,1.1281,0.128369,1.2,-0.130701,-0.309585,0.0210376,0.314623,0.316583,0,0.992769,0.768662
3.93729,1.11603,-0.864277,1.18787,0.0504769,0.0238493,1.92187,1.13977,0.140115,1.2,-0.123166,-0.322797,0.0220003,0.328526,0.330968,0,1.00475,0.794933
3.96928,1.12878,-0.864084,1.18802,0.0463482,0.0318705,1.93667,1.14578,0.146174,1.2,-0.117696,-0.332153,0.0198617,0.335455,0.338171,0,1.01047,0.809366
4.00521,1.14517,-0.862727,1.18793,0.0416662,0.0395767,1.95019,1.15818,0.158683,1.2,-0.107927,-0.343308,0.0194845,0.349286,0.352625,0,1.02156,0.832914
4.03707,1.15829,-0.861067,1.18784,0.0395147,0.0430981,1.95658,1.17106,0.171698,1.2,-0.0967218,-0.350091,0.0192193,0.36306,0.367131,0,1.03292,0.85216
4.06895,1.17125,-0.858934,1.18781,0.0350116,0.0491337,1.96875,1.17768,0.178394,1.2,-0.0852238,-0.355321,0.0201326,0.369923,0.374406,0,1.03742,0.860271
4.10492,1.184,-0.856285,1.18784,0.030585,0.0538593,1.97962,1.19128,0.192169,1.2,-0.0734825,-0.359068,0.0181385,0.3836,0.389008,0,1.04855,0.876854
4.13797,1.19654,-0.853134,1.18793,0.0288205,0.0558264,1.98466,1.20535,0.206448,1.2,-0.0589113,-0.364777,0.0205082,0.397204,0.403685,0,1.05969,0.893865
4.16966,1.20887,-0.849446,1.18805,0.025544,0.0582302,1.99413,1.21255,0.213775,1.2,-0.0444946,-0.36887,0.0195678,0.403973,0.411051,0,1.06329,0.899879
4.20555,1.22395,-0.84409,1.18823,0.0228412,0.059181,2.00273,1.2273,0.228804,1.2,-0.0255971,-0.373684,0.0189701,0.417445,0.425851,0,1.07296,0.914277
4.23744,1.23576,-0.839187,1.18835,0.0218855,0.0593095,2.00654,1.24252,0.244346,1.2,-0.00933003,-0.377284,0.0191971,0.430829,0.440759,0,1.08362,0.929141
4.26949,1.24729,-0.833736,1.18851,0.02028,0.0586211,2.01379,1.25027,0.252284,1.2,0.00615349,-0.379035,0.0190202,0.437464,0.448234,0,1.08608,0.933148
4.30523,1.25853,-0.827757,1.18851,0.0187372,0.0568871,2.02055,1.26613,0.268561,1.2,0.0225785,-0.381941,0.0178683,0.450671,0.463297,0,1.09641,0.947633
4.33715,1.26955,-0.821251,1.18842,0.0184319,0.0556305,2.02381,1.2824,0.285323,1.2,0.0370637,-0.385992,0.0167903,0.463742,0.478475,0,1.10671,0.964178
4.36937,1.28038,-0.814279,1.18832,0.0182764,0.053086,2.02965,1.2907,0.293894,1.2,0.0504586,-0.38957,0.0166756,0.47023,0.48612,0,1.10828,0.971246
4.40972,1.2949,-0.806337,1.18784,0.0192772,0.0504691,2.03456,1.3076,0.311393,1.2,0.0651325,-0.393951,0.0183569,0.483086,0.501509,0,1.11787,0.988367
4.43757,1.30685,-0.800195,1.18726,0.0197758,0.0490796,2.03666,1.32488,0.329376,1.2,0.0764873,-0.395336,0.0180383,0.495774,0.517052,0,1.12979,1.00428
4.46949,1.31852,-0.793513,1.1868,0.0204149,0.0457111,2.04008,1.33366,0.338543,1.2,0.087139,-0.399328,0.0187327,0.502049,0.524883,0,1.13223,1.01325
4.50582,1.32993,-0.786365,1.18634,0.020611,0.0424751,2.04307,1.35156,0.357304,1.2,0.0962462,-0.401885,0.0185553,0.514495,0.540735,0,1.14396,1.03141
4.53779,1.34113,-0.778789,1.18594,0.0208141,0.0410548,2.04427,1.3697,0.376422,1.2,0.105276,-0.404094,0.0200425,0.526655,0.556682,0,1.15565,1.04931
4.56958,1.35211,-0.770833,1.18567,0.0215283,0.0383187,2.04664,1.37892,0.386188,1.2,0.112859,-0.406015,0.0198007,0.532669,0.564758,0,1.15742,1.05784
4.60551,1.3656,-0.760376,1.18539,0.0215734,0.035954,2.04774,1.39761,0.406071,1.2,0.122301,-0.409759,0.0241995,0.544512,0.581079,0,1.16698,1.07732
4.63737,1.37621,-0.751621,1.18533,0.0215327,0.0348481,2.04799,1.41661,0.426411,1.2,0.130866,-0.412516,0.0256174,0.556086,0.597633,0,1.17882,1.0963
4.66933,1.38666,-0.742498,1.18536,0.0217528,0.0331768,2.04778,1.42621,0.436755,1.2,0.139502,-0.414754,0.0254038,0.561765,0.606006,0,1.18001,1.10494
4.70632,1.39698,-0.73307,1.18549,0.0217327,0.0320357,2.04692,1.44563,0.457781,1.2,0.147889,-0.417581,0.0268324,0.572891,0.622956,0,1.19193,1.12431
4.73863,1.40714,-0.723323,1.18564,0.0216976,0.0317177,2.04626,1.46531,0.479272,1.2,0.154781,-0.419057,0.0272895,0.583689,0.640211,0,1.20409,1.14313
4.77048,1.4172,-0.713308,1.18582,0.0216384,0.0311553,2.04421,1.47521,0.490153,1.2,0.162017,-0.420379,0.0268711,0.588936,0.648929,0,1.20494,1.15169
4.80702,1.42983,-0.700691,1.18591,0.0218691,0.0307931,2.04171,1.4952,0.512285,1.2,0.173366,-0.423281,0.0258718,0.599159,0.666647,0,1.21482,1.17043
4.83874,1.43988,-0.690343,1.18585,0.0221901,0.030763,2.04021,1.51537,0.534847,1.2,0.181028,-0.423688,0.0250167,0.608958,0.684714,0,1.22759,1.1884
4.87058,1.44983,-0.679699,1.18576,0.0227401,0.03101,2.03647,1.52551,0.546285,1.2,0.190037,-0.426602,0.0247248,0.613685,0.693886,0,1.2284,1.19816
4.90661,1.46208,-0.665937,1.1857,0.0230427,0.0317691,2.03176,1.5459,0.569475,1.2,0.200773,-0.427236,0.0287093,0.622769,0.712527,0,1.23834,1.21572
4.93856,1.4717,-0.654616,1.18579,0.0231867,0.0317912,2.02979,1.56657,0.593271,1.2,0.208197,-0.428162,0.030879,0.631389,0.731747,0,1.25157,1.23508
4.97007,1.47888,-0.645941,1.18591,0.0232712,0.0318779,2.02447,1.57669,0.605035,1.2,0.213937,-0.429811,0.0313335,0.635383,0.741293,0,1.25487,1.24502
5.00697,1.49078,-0.631184,1.18616,0.0241015,0.0314227,2.0185,1.59729,0.629242,1.2,0.224397,-0.431681,0.0330265,0.643037,0.761049,0,1.26499,1.2645
5.03868,1.50024,-0.619062,1.18634,0.02475,0.0313032,2.0154,1.61789,0.653814,1.2,0.233171,-0.43344,0.0334707,0.650012,0.781288,0,1.27837,1.28469
5.07059,1.50963,-0.606683,1.18649,0.0266093,0.0302693,2.00847,1.62819,0.666248,1.2,0.240935,-0.43498,0.033037,0.653228,0.79161,0,1.27851,1.29445
5.10645,1.51901,-0.594061,1.18665,0.0283697,0.0292137,2.00126,1.64877,0.691393,1.2,0.249726,-0.437214,0.0334008,0.659069,0.812674,0,1.29206,1.31563
5.13825,1.52843,-0.58117,1.18683,0.0292056,0.0288334,1.99737,1.66926,0.716903,1.2,0.257971,-0.442608,0.0332309,0.664056,0.834331,0,1.30576,1.34037
5.17007,1.53789,-0.56798,1.18692,0.0309934,0.0282344,1.98807,1.67993,0.730373,1.2,0.267377,-0.444418,0.035009,0.666294,0.845894,0,1.30616,1.35102
5.20607,1.5499,-0.550816,1.18665,0.0325606,0.0280092,1.98015,1.69975,0.755789,1.2,0.278137,-0.446104,0.0355182,0.669739,0.86798,0,1.31524,1.37165
5.23774,1.55966,-0.536709,1.18625,0.0332414,0.0280951,1.97457,1.71985,0.782132,1.2,0.28453,-0.450394,0.0345299,0.67219,0.891267,0,1.32861,1.39697
5.26977,1.56945,-0.522375,1.18588,0.0334693,0.0284873,1.9661,1.72981,0.795419,1.2,0.295597,-0.452711,0.0359842,0.672973,0.903176,0,1.32759,1.40788
5.3056,1.57928,-0.507807,1.18564,0.033949,0.0296005,1.95596,1.74953,0.822227,1.2,0.304338,-0.455947,0.0375412,0.673575,0.927563,0,1.34096,1.43243
5.33759,1.58918,-0.49305,1.18549,0.0337611,0.030317,1.95046,1.76894,0.849325,1.2,0.311565,-0.459163,0.0382175,0.672781,0.952732,0,1.35443,1.45787
5.36939,1.59916,-0.478041,1.18539,0.0331143,0.0322892,1.93909,1.7785,0.862972,1.2,0.324243,-0.462629,0.0368647,0.671816,0.965615,0,1.35303,1.47039
5.40528,1.61172,-0.458905,1.1853,0.0311225,0.0336072,1.92721,1.79734,0.890476,1.2,0.33807,-0.465485,0.0368142,0.668647,0.992028,0,1.36217,1.49499
5.43717,1.62184,-0.443309,1.18524,0.0296985,0.0342413,1.92108,1.81573,0.918229,1.2,0.347194,-0.468464,0.0382034,0.663679,1.01931,0,1.37535,1.52154
5.4696,1.63198,-0.427466,1.18527,0.0263586,0.0362645,1.90705,1.82474,0.932192,1.2,0.361972,-0.466831,0.0397584,0.660461,1.03329,0,1.37333,1.53004
5.50552,1.64205,-0.411335,1.18542,0.0231933,0.0379288,1.89527,1.84236,0.96029,1.2,0.376828,-0.462248,0.0404381,0.652422,1.06193,0,1.38625,1.54942
5.53737,1.65202,-0.394988,1.18567,0.0212894,0.0385326,1.88858,1.85937,0.988582,1.2,0.385898,-0.45969,0.0394936,0.642057,1.09149,0,1.3991,1.57269
5.56975,1.66441,-0.374246,1.18588,0.0171609,0.0397476,1.87447,1.86779,1.00306,1.2,0.402464,-0.455531,0.0371285,0.635804,1.1069,0,1.39231,1.5802
5.60535,1.67364,-0.357648,1.18561,0.0135015,0.0413322,1.86014,1.88366,1.03137,1.2,0.417827,-0.449107,0.0352059,0.621574,1.13759,0,1.40488,1.60012
5.63716,1.68262,-0.340848,1.18524,0.0113086,0.0422804,1.85304,1.89892,1.06009,1.2,0.43031,-0.445292,0.0340626,0.604207,1.16947,0,1.41762,1.62446
5.66923,1.69149,-0.323757,1.185,0.00733464,0.0437777,1.83835,1.90626,1.0745,1.2,0.446506,-0.436293,0.0340762,0.594291,1.18574,0,1.41473,1.6291
5.70506,1.70022,-0.306353,1.18478,0.00331404,0.0449942,1.82337,1.92029,1.10341,1.2,0.462881,-0.425168,0.032209,0.57177,1.21889,0,1.42692,1.64797
5.73707,1.70878,-0.288704,1.1846,0.000968246,0.0456018,1.81562,1.93341,1.13242,1.2,0.4741,-0.416836,0.0312856,0.545348,1.25278,0,1.43885,1.67143
5.76971,1.71718,-0.270814,1.18451,-0.00321779,0.0463188,1.79979,1.93961,1.14695,1.2,0.489305,-0.405827,0.0315517,0.530558,1.26996,0,1.43519,1.67659
5.80577,1.72744,-0.248072,1.18442,-0.00668211,0.047014,1.78361,1.95124,1.17606,1.2,0.506681,-0.390128,0.0331082,0.497523,1.30469,0,1.4417,1.69517
5.83756,1.7354,-0.229651,1.18448,-0.00813015,0.0476262,1.77529,1.9618,1.20521,1.2,0.51569,-0.378831,0.0345749,0.459539,1.33971,0,1.45269,1.7198
5.86942,1.7431,-0.211043,1.18457,-0.0113898,0.0487203,1.75844,1.96666,1.21978,1.2,0.530662,-0.362811,0.0356709,0.438549,1.35724,0,1.44827,1.72288
5.90548,1.75054,-0.19218,1.18475,-0.0146384,0.0494355,1.74134,1.97548,1.24893,1.2,0.546983,-0.344302,0.0364326,0.392267,1.39212,0,1.45864,1.74368
5.93738,1.75764,-0.173057,1.18494,-0.0161332,0.0500006,1.73264,1.98306,1.27805,1.2,0.557718,-0.330383,0.037403,0.339905,1.42639,0,1.46859,1.77062
5.97003,1.76445,-0.153718,1.18518,-0.019916,0.0511159,1.71313,1.98636,1.29258,1.2,0.572178,-0.310297,0.0381804,0.311313,1.44313,0,1.4633,1.77314
6.00586,1.77218,-0.129451,1.18509,-0.0217674,0.0513461,1.69709,1.99194,1.3216,1.2,0.58655,-0.288883,0.0388056,0.249039,1.47546,0,1.46767,1.79676
6.03779,1.77783,-0.10988,1.18481,-0.0230945,0.0512682,1.6878,1.99968,1.39631,1.2,0.59839,-0.273103,0.0388716,0.0526738,1.49907,0,1.52252,1.8547
6.06966,1.78317,-0.0900455,1.1846,-0.0252637,0.0508568,1.66943,1.99946,1.43727,1.2,0.610491,-0.251588,0.0408544,-0.0708226,1.49833,0,1.54263,1.87831
6.10556,1.78822,-0.0699312,1.18454,-0.026249,0.0505738,1.65053,1.98893,1.51551,1.2,0.625737,-0.230354,0.0433337,-0.332603,1.46266,0,1.59817,1.94592
6.13759,1.79299,-0.0494861,1.18454,-0.0264604,0.0508304,1.64105,1.96509,1.58866,1.2,0.637289,-0.214748,0.0458301,-0.593897,1.37742,0,1.64724,2.01319
6.16964,1.79853,-0.0235448,1.18469,-0.0265581,0.0528117,1.62198,1.94754,1.62459,1.2,0.650363,-0.19011,0.048056,-0.720891,1.31541,0,1.65492,2.03697
6.20542,1.80264,-0.00246562,1.18488,-0.0255518,0.0576494,1.60232,1.90513,1.68828,1.2,0.664797,-0.167323,0.0540958,-0.932018,1.17531,0,1.69392,2.08696
6.23746,1.80648,0.0190017,1.18515,-0.0249674,0.0615697,1.59229,1.8498,1.74763,1.2,0.680116,-0.151285,0.0604573,-1.10252,1.01708,0,1.72923,2.13226
6.27013,1.81003,0.0409977,1.18558,-0.0237763,0.0726067,1.57236,1.8178,1.77511,1.2,0.698854,-0.128359,0.0727873,-1.17101,0.937408,0,1.73419,2.1535
6.30632,1.8133,0.0635783,1.18619,-0.0243368,0.0865587,1.55199,1.74564,1.82557,1.2,0.717308,-0.103033,0.0910365,-1.27887,0.7839,0,1.76334,2.18624
6.33846,1.8163,0.0867892,1.18698,-0.0255901,0.0940153,1.54152,1.66347,1.86987,1.2,0.738308,-0.0867802,0.10244,-1.35532,0.642728,0,1.78967,2.21945
6.37015,1.819,0.110736,1.18796,-0.0325234,0.107722,1.52046,1.61895,1.88967,1.2,0.761297,-0.0593716,0.120718,-1.38444,0.577348,0,1.79019,2.24146
6.40601,1.82174,0.141338,1.18903,-0.0462804,0.11871,1.49954,1.52383,1.92449,1.2,0.792804,-0.0241389,0.13903,-1.42883,0.456568,0,1.80789,2.27729
6.43791,1.82331,0.166616,1.18994,-0.0580041,0.123597,1.48682,1.42166,1.95282,1.2,0.819491,0.00570184,0.15259,-1.4592,0.347472,0,1.83083,2.30923
6.4696,1.82424,0.192967,1.19107,-0.0798253,0.128091,1.46754,1.36836,1.96453,1.2,0.847491,0.0426637,0.169245,-1.47039,0.296562,0,1.8293,2.33788
6.5055,1.82439,0.220396,1.1925,-0.108663,0.12862,1.44629,1.25821,1.98297,1.2,0.873196,0.0874088,0.18813,-1.48656,0.200368,0,1.85129,2.36993
6.53766,1.82353,0.248921,1.19421,-0.124809,0.127057,1.43573,1.14459,1.99474,1.2,0.897979,0.131568,0.207495,-1.49599,0.109588,0,1.8732,2.40305
6.56931,1.8214,0.278511,1.19626,-0.158558,0.119844,1.41545,1.08693,1.99811,1.2,0.920354,0.189302,0.226141,-1.49857,0.0654434,0,1.86989,2.43263
6.60528,1.81673,0.317028,1.1991,-0.192618,0.107019,1.39659,0.971005,1.99979,1.2,0.946334,0.266502,0.247218,-1.49984,-0.0217556,0,1.88333,2.47548
6.63794,1.81103,0.348976,1.20169,-0.209656,0.0980137,1.38768,0.855436,1.99474,1.2,0.961182,0.334032,0.266407,-1.49599,-0.109569,0,1.90308,2.51107
6.67138,1.80327,0.381852,1.20453,-0.242173,0.0761856,1.37103,0.798289,1.9897,1.2,0.970878,0.415009,0.28697,-1.49203,-0.154433,0,1.8961,2.54412
6.70786,1.79028,0.424111,1.2085,-0.27246,0.0487169,1.35565,0.686217,1.97459,1.2,0.97448,0.524128,0.313692,-1.47942,-0.247602,0,1.90342,2.59145
6.73843,1.78055,0.449965,1.21106,-0.286692,0.0332423,1.34831,0.578354,1.95282,1.2,0.970457,0.591185,0.331156,-1.4592,-0.347463,0,1.92457,2.62564
6.7706,1.76087,0.493679,1.21561,-0.312163,0.000239982,1.33497,0.52648,1.93948,1.2,0.954202,0.711757,0.359847,-1.44549,-0.400684,0,1.90113,2.66937
6.80615,1.74543,0.526,1.21844,-0.333309,-0.0354986,1.32197,0.42766,1.90789,1.2,0.925563,0.814408,0.383483,-1.4087,-0.515342,0,1.90957,2.71368
6.83799,1.72766,0.55763,1.22125,-0.343874,-0.058144,1.31429,0.336552,1.86988,1.2,0.890414,0.91507,0.412779,-1.35534,-0.642703,0,1.91249,2.76413
6.8699,1.70616,0.589395,1.22427,-0.356391,-0.0927561,1.30299,0.294268,1.8485,1.2,0.843318,1.02321,0.437771,-1.32047,-0.71158,0,1.89192,2.8077
6.90581,1.6808,0.621004,1.22739,-0.3667,-0.135135,1.2893,0.21697,1.8011,1.2,0.780911,1.13474,0.462131,-1.22944,-0.859346,0,1.88047,2.86905
6.93776,1.65158,0.652211,1.23053,-0.36855,-0.150625,1.28426,0.150212,1.74764,1.2,0.719604,1.23557,0.495282,-1.10255,-1.01705,0,1.85877,2.93936
6.96956,1.61846,0.682788,1.23361,-0.369053,-0.188447,1.27145,0.121064,1.71869,1.2,0.639104,1.3432,0.517077,-1.02306,-1.09698,0,1.8211,2.99744
7.00555,1.57159,0.719759,1.23718,-0.364057,-0.225052,1.25803,0.0717449,1.65647,1.2,0.528765,1.47148,0.546236,-0.829511,-1.24976,0,1.76871,3.09005
7.03789,1.52973,0.748029,1.23972,-0.358917,-0.24254,1.2512,0.0349183,1.58868,1.2,0.434947,1.56487,0.572127,-0.593948,-1.3774,0,1.71543,3.16905
7.06976,1.48403,0.774879,1.24182,-0.342956,-0.275398,1.23742,0.0213488,1.55276,1.2,0.324165,1.66276,0.578604,-0.465044,-1.42609,0,1.65719,3.24016
7.10566,1.43465,0.800075,1.24353,-0.319505,-0.305773,1.22339,0.0041318,1.47703,1.2,0.205787,1.75208,0.577753,-0.200222,-1.48658,0,1.58321,3.31474
7.13887,1.38172,0.823399,1.24484,-0.304501,-0.319987,1.21641,0.00031575,1.39633,1.2,0.0952384,1.82532,0.591923,0.0526141,-1.49908,0,1.49618,3.37696
7.17103,1.32543,0.844643,1.24579,-0.268128,-0.345774,1.20267,0.00345679,1.3542,1.2,-0.0304482,1.90112,0.572691,0.168268,-1.49053,0,1.41752,3.44539
7.20717,1.2588,0.87169,1.24655,-0.223163,-0.367757,1.1888,0.0197817,1.26655,1.2,-0.183945,1.97242,0.550826,0.371642,-1.45323,0,1.30125,3.51386
7.23918,1.20595,0.892052,1.24701,-0.197706,-0.377048,1.18173,0.0492988,1.17464,1.2,-0.301284,2.00798,0.548953,0.536687,-1.4007,0,1.1916,3.55283
7.27167,1.14988,0.909093,1.24747,-0.141679,-0.391175,1.16801,0.0688892,1.12718,1.2,-0.433808,2.03969,0.499652,0.605878,-1.37219,0,1.10379,3.6016
7.30834,1.09109,0.922527,1.2482,-0.0782075,-0.399312,1.15523,0.117385,1.02947,1.2,-0.565939,2.05715,0.438431,0.721175,-1.31526,0,0.980745,3.63621
7.34006,1.03008,0.932101,1.24927,-0.044209,-0.400778,1.14946,0.177768,0.928275,1.2,-0.684821,2.0482,0.427331,0.810868,-1.26194,0,0.853747,3.65742
7.37229,0.967468,0.937813,1.25052,0.0247445,-0.396591,1.13937,0.212189,0.876451,1.2,-0.809223,2.03513,0.333679,0.847873,-1.23738,0,0.75945,3.68329
7.40794,0.887859,0.939484,1.25201,0.0912054,-0.38091,1.13165,0.290862,0.768024,1.2,-0.954458,1.98641,0.246686,0.910356,-1.19216,0,0.623306,3.69347
7.44025,0.823813,0.936353,1.2532,0.123202,-0.368564,1.12929,0.375003,0.662378,1.2,-1.05576,1.92356,0.216367,0.956167,-1.15574,0,0.528511,3.68467
7.47224,0.760149,0.929276,1.25439,0.185579,-0.336866,1.12736,0.421312,0.607373,1.2,-1.15912,1.84539,0.113108,0.97542,-1.13954,0,0.470522,3.67136
7.50774,0.697487,0.918162,1.25589,0.246925,-0.298193,1.12829,0.520642,0.494733,1.2,-1.25176,1.74615,0.0164811,1.00699,-1.11175,0,0.462266,3.64277
7.53959,0.636501,0.90308,1.25781,0.277023,-0.276677,1.12976,0.624461,0.382605,1.2,-1.325,1.6331,0.00445424,1.02982,-1.09063,0,0.523815,3.60054
7.57135,0.577821,0.884195,1.26028,0.335981,-0.230755,1.13348,0.678861,0.325478,1.2,-1.39387,1.49726,-0.0759516,1.0387,-1.08217,0,0.570971,3.54636
7.60726,0.505577,0.865741,1.26346,0.392046,-0.182735,1.13639,0.791717,0.209434,1.2,-1.45254,1.30955,-0.115163,1.05179,-1.06946,0,0.718778,3.4561
7.63899,0.450526,0.851881,1.26654,0.418833,-0.158429,1.13699,0.905344,0.094762,1.2,-1.47964,1.15434,-0.0911601,1.05887,-1.06245,0,0.885729,3.37142
7.67078,0.400089,0.834088,1.27048,0.46952,-0.110175,1.13552,0.963237,0.0367696,1.2,-1.50718,0.966678,-0.112635,1.06039,-1.06093,0,0.978682,3.27357
7.70674,0.354765,0.812616,1.27515,0.5156,-0.0647871,1.13025,1.07916,-0.0792195,1.2,-1.52433,0.762954,-0.105973,1.05941,-1.06191,0,1.15142,3.16497
7.7386,0.314983,0.787728,1.28033,0.536315,-0.0429441,1.12586,1.19412,-0.195048,1.2,-1.52081,0.573476,-0.0365415,1.05298,-1.06828,0,1.32105,3.05305
7.77053,0.273544,0.752168,1.28729,0.572126,-0.00218289,1.1139,1.25069,-0.252715,1.2,-1.51013,0.3107,0.0420795,1.04764,-1.07352,0,1.40436,2.90862
7.80625,0.247338,0.720316,1.29297,0.600835,0.0348834,1.09762,1.36116,-0.367417,1.2,-1.4888,0.0859505,0.118543,1.03235,-1.08823,0,1.55962,2.7837
7.83811,0.22756,0.685556,1.29855,0.612375,0.0519017,1.08838,1.4667,-0.480801,1.2,-1.45373,-0.114039,0.223631,1.01025,-1.10878,0,1.70457,2.66659
7.87066,0.214321,0.647977,1.30392,0.629612,0.0825673,1.06674,1.51719,-0.536903,1.2,-1.40686,-0.339844,0.326594,0.99629,-1.12134,0,1.76415,2.54804
7.90651,0.207703,0.607648,1.30893,0.639931,0.107588,1.04259,1.61283,-0.64774,1.2,-1.34542,-0.560021,0.442053,0.961568,-1.15125,0,1.88739,2.42222
7.93844,0.207659,0.564602,1.31345,0.643086,0.118061,1.02968,1.70022,-0.756408,1.2,-1.28415,-0.755665,0.557724,0.91604,-1.1878,0,1.99642,2.31055
7.97031,0.214089,0.518871,1.31729,0.645134,0.134349,1.00305,1.74045,-0.809807,1.2,-1.20102,-0.966287,0.674556,0.888399,-1.20861,0,2.02705,2.20894
8.00642,0.210326,0.463385,1.32001,0.643087,0.144583,0.975179,1.8133,-0.914506,1.2,-1.09882,-1.19977,0.808707,0.82122,-1.25523,0,2.1172,2.08414
8.03866,0.204723,0.418367,1.32092,0.64032,0.146848,0.960151,1.87521,-1.01613,1.2,-1.02794,-1.36785,0.90445,0.734522,-1.30785,0,2.20521,1.98189
8.07032,0.206636,0.370165,1.32114,0.632273,0.147017,0.931229,1.9018,-1.06568,1.2,-0.932052,-1.54532,1.0019,0.682232,-1.33587,0,2.22484,1.91144
8.10634,0.218994,0.305314,1.3204,0.622055,0.140985,0.904761,1.94578,-1.16205,1.2,-0.826948,-1.75451,1.11453,0.555997,-1.39315,0,2.26924,1.81254
8.13791,0.231453,0.263956,1.31943,0.614608,0.135152,0.890283,1.97822,-1.2589,1.2,-0.765358,-1.87793,1.17332,0.387142,-1.44918,0,2.32046,1.69964
8.16986,0.25356,0.205999,1.31741,0.601175,0.123719,0.870933,1.98775,-1.29918,1.2,-0.684526,-2.04156,1.23769,0.301615,-1.46936,0,2.2993,1.68278
8.20579,0.289523,0.129092,1.31387,0.583795,0.106812,0.852738,1.99917,-1.38518,1.2,-0.597435,-2.23723,1.30332,0.0843598,-1.49763,0,2.28668,1.64636
8.23768,0.3245,0.0640541,1.31012,0.573997,0.0967275,0.844298,1.99715,-1.46656,1.2,-0.547537,-2.38146,1.3475,-0.165318,-1.49086,0,2.26995,1.65982
8.2696,0.364534,-0.00401808,1.30563,0.55166,0.0749496,0.829865,1.99111,-1.50538,1.2,-0.487937,-2.53728,1.36004,-0.297189,-1.47026,0,2.21607,1.73915
8.30563,0.409213,-0.0750956,1.30035,0.525182,0.0506056,0.817592,1.96903,-1.57921,1.2,-0.438889,-2.69093,1.34918,-0.560029,-1.39153,0,2.16921,1.87707
8.33803,0.458081,-0.149082,1.29431,0.510573,0.038015,0.812165,1.93391,-1.64773,1.2,-0.41617,-2.82392,1.35212,-0.800256,-1.2687,0,2.10545,2.0963
8.37002,0.510722,-0.225947,1.2876,0.477793,0.0113642,0.802259,1.9116,-1.67993,1.2,-0.38771,-2.97112,1.30122,-0.905764,-1.19566,0,2.02094,2.26138
8.40627,0.571221,-0.318612,1.27872,0.440652,-0.0156833,0.79286,1.85786,-1.74005,1.2,-0.368498,-3.13105,1.23388,-1.08242,-1.03845,0,1.91888,2.53202
8.43802,0.618427,-0.392545,1.27136,0.416301,-0.0318097,0.787245,1.79257,-1.79431,1.2,-0.365724,-3.23579,1.1883,-1.21477,-0.879963,0,1.82993,2.7718
8.47121,0.668898,-0.469687,1.26389,0.375456,-0.0558918,0.778489,1.75588,-1.81918,1.2,-0.359696,-3.34509,1.08891,-1.26648,-0.803763,0,1.734,2.9097
8.50707,0.722075,-0.549782,1.2565,0.325638,-0.0820295,0.768012,1.67497,-1.86432,1.2,-0.351994,-3.45063,0.951032,-1.34662,-0.660758,0,1.62456,3.11081
8.53894,0.7774,-0.632643,1.2493,0.298257,-0.0951651,0.761844,1.58497,-1.90318,1.2,-0.362734,-3.51641,0.886564,-1.40265,-0.531563,0,1.50628,3.2828
8.57086,0.834191,-0.717938,1.24265,0.240665,-0.121473,0.749044,1.53695,-1.92022,1.2,-0.35793,-3.58748,0.718767,-1.42382,-0.471946,0,1.39325,3.37036
8.60795,0.906323,-0.827651,1.23547,0.177457,-0.147883,0.734732,1.43563,-1.94942,1.2,-0.363052,-3.64131,0.544184,-1.45581,-0.361417,0,1.24089,3.49971
8.63974,0.964173,-0.917595,1.23105,0.144246,-0.161477,0.726975,1.32847,-1.97206,1.2,-0.38728,-3.6478,0.474543,-1.47721,-0.260504,0,1.11606,3.58983
8.67251,1.02132,-1.00909,1.22812,0.0676924,-0.192918,0.70852,1.27313,-1.9809,1.2,-0.380148,-3.64974,0.255534,-1.48483,-0.212824,0,1.0043,3.61911
8.70734,1.07699,-1.10178,1.22699,0.00179952,-0.220333,0.69262,1.15988,-1.99356,1.2,-0.386649,-3.62049,0.087761,-1.49507,-0.121469,0,0.896027,3.67144
8.73931,1.1434,-1.21874,1.22836,-0.0359411,-0.235742,0.683267,1.0445,-1.9995,1.2,-0.443596,-3.54133,0.0517307,-1.49963,-0.0334098,0,0.787511,3.66379
8.77114,1.18097,-1.28911,1.23065,-0.112897,-0.26766,0.664181,0.986468,-1.99995,1.2,-0.431805,-3.48096,-0.153837,-1.49997,0.0101498,0,0.73761,3.6541
8.80714,1.24867,-1.40051,1.23553,-0.187802,-0.300437,0.644648,0.870767,-1.9958,1.2,-0.45878,-3.34849,-0.292208,-1.49681,0.0977416,0,0.706008,3.61101
8.8388,1.30242,-1.48604,1.24088,-0.23194,-0.319525,0.633795,0.756796,-1.98493,1.2,-0.501158,-3.22086,-0.332423,-1.48817,0.187983,0,0.74045,3.5644
8.87078,1.35027,-1.57056,1.24789,-0.296086,-0.349169,0.616766,0.70095,-1.97699,1.2,-0.530562,-3.07296,-0.419002,-1.4815,0.234847,0,0.767525,3.4672
8.90867,1.40104,-1.67405,1.25854,-0.360638,-0.384317,0.598124,0.592459,-1.95611,1.2,-0.590768,-2.87835,-0.460394,-1.46242,0.333649,0,0.858368,3.35986
8.9385,1.43414,-1.75486,1.26782,-0.386235,-0.404576,0.589868,0.489439,-1.92865,1.2,-0.672749,-2.72719,-0.411923,-1.43359,0.44137,0,0.962948,3.28456
8.97034,1.4545,-1.81419,1.27487,-0.420848,-0.450707,0.575536,0.440425,-1.91247,1.2,-0.700451,-2.6188,-0.407356,-1.41444,0.499354,0,1.02158,3.22469
9.00694,1.47968,-1.91058,1.28616,-0.434348,-0.505061,0.559758,0.348215,-1.87532,1.2,-0.791876,-2.45355,-0.278108,-1.36363,0.62492,0,1.13529,3.14344
9.03902,1.49174,-1.98547,1.29453,-0.434048,-0.52454,0.553404,0.264766,-1.83184,1.2,-0.905098,-2.31825,-0.147546,-1.29069,0.764277,0,1.24016,3.11006
9.07061,1.49634,-2.05847,1.30215,-0.421388,-0.57608,0.53234,0.226695,-1.80778,1.2,-0.973373,-2.21205,0.0238957,-1.24346,0.838929,0,1.29818,3.063
9.10691,1.49326,-2.1297,1.30893,-0.399759,-0.616841,0.507394,0.158471,-1.75511,1.2,-1.05323,-2.11241,0.204054,-1.12185,0.995715,0,1.39062,3.11557
9.13884,1.48238,-2.19934,1.31473,-0.389564,-0.630803,0.495704,0.101571,-1.69654,1.2,-1.18765,-1.99985,0.357734,-0.957461,1.15467,0,1.47397,3.18308
9.17251,1.46363,-2.26753,1.31949,-0.361716,-0.659491,0.461866,0.0775614,-1.66502,1.2,-1.28067,-1.92147,0.527776,-0.857711,1.23058,0,1.51608,3.22379
9.20814,1.45425,-2.36045,1.32318,-0.33388,-0.678555,0.423876,0.0390477,-1.59795,1.2,-1.4193,-1.83412,0.704421,-0.627018,1.36266,0,1.61226,3.36799
9.24002,1.4492,-2.43752,1.32458,-0.321403,-0.684755,0.404013,0.0134848,-1.52556,1.2,-1.55118,-1.76219,0.828199,-0.368046,1.45415,0,1.70542,3.5257
9.27274,1.43419,-2.51234,1.32504,-0.301635,-0.689574,0.359178,0.00565529,-1.48741,1.2,-1.66123,-1.73271,0.936283,-0.235343,1.48142,0,1.76262,3.63874
9.30806,1.40939,-2.58494,1.32486,-0.29521,-0.685365,0.321659,4.68579e-05,-1.40735,1.2,-1.78912,-1.70623,1.02132,0.020435,1.49986,0,1.8408,3.82055
9.33982,1.37518,-2.65517,1.32416,-0.295754,-0.679876,0.300915,0.00789241,-1.32258,1.2,-1.93419,-1.65738,1.11968,0.247304,1.47947,0,1.91329,3.98151
9.37175,1.33186,-2.72282,1.32312,-0.305764,-0.661432,0.259687,0.0168375,-1.27849,1.2,-2.07516,-1.65611,1.14881,0.346779,1.45936,0,1.95718,4.10995
9.40754,1.26548,-2.80311,1.32166,-0.327317,-0.632968,0.217922,0.0446171,-1.18712,1.2,-2.26134,-1.63565,1.16972,0.516815,1.40816,0,2.02897,4.28382
9.44137,1.20309,-2.86325,1.32065,-0.345528,-0.611236,0.192845,0.0853147,-1.09163,1.2,-2.40533,-1.59405,1.20191,0.651681,1.35104,0,2.09824,4.41174
9.47121,1.13304,-2.9191,1.32016,-0.378563,-0.571342,0.15457,0.110227,-1.04269,1.2,-2.55445,-1.5802,1.14658,0.707432,1.3227,0,2.14044,4.51457
9.50717,1.05599,-2.97002,1.3204,-0.421704,-0.517328,0.111757,0.169054,-0.941962,1.2,-2.7096,-1.55859,1.03086,0.800178,1.26875,0,2.21679,4.62332
9.53898,0.972704,-3.01532,1.32175,-0.444834,-0.486763,0.090038,0.239077,-0.838042,1.2,-2.82673,-1.46968,1.04424,0.872113,1.22042,0,2.30078,4.69132
9.57071,0.884064,-3.05427,1.3244,-0.492581,-0.419644,0.0470453,0.277994,-0.785001,1.2,-2.96587,-1.39569,0.888276,0.901728,1.1987,0,2.3521,4.74112
9.60718,0.787068,-3.10546,1.3284,-0.544089,-0.337618,0.00101213,0.362978,-0.676985,1.2,-3.1023,-1.24792,0.700436,0.950567,1.16035,0,2.46857,4.76614
9.63891,0.71481,-3.14408,1.33218,-0.56143,-0.306116,-0.0147156,0.456551,-0.56667,1.2,-3.15191,-1.0881,0.696671,0.987956,1.12869,0,2.59369,4.74742
9.67043,0.638941,-3.17453,1.33646,-0.601393,-0.224341,-0.052764,0.506131,-0.510811,1.2,-3.2214,-0.897111,0.486882,1.00306,1.11529,0,2.67052,4.70455
9.70903,0.560578,-3.19695,1.34085,-0.638293,-0.131985,-0.0899115,0.610158,-0.397789,1.2,-3.26453,-0.658257,0.258244,1.02717,1.09313,0,2.80314,4.64249
9.74091,0.480818,-3.21137,1.34506,-0.649806,-0.0987408,-0.101596,0.71943,-0.283431,1.2,-3.24991,-0.43983,0.259903,1.04418,1.07689,0,2.94123,4.56149
9.77266,0.400608,-3.21789,1.34891,-0.673849,-0.0167615,-0.127044,0.775582,-0.225863,1.2,-3.22714,-0.159026,0.112968,1.05031,1.07091,0,3.01911,4.4522
9.80841,0.301051,-3.21501,1.35294,-0.68958,0.0635801,-0.147522,0.889976,-0.110191,1.2,-3.14962,0.185805,0.0348722,1.05823,1.06308,0,3.16387,4.29847
9.84079,0.222922,-3.20394,1.35544,-0.694469,0.102815,-0.155678,1,-4.89859e-16,1.2,-3.05983,0.430147,0.0597813,0,0,0,3.3005,3.09049
9.87318,0.146961,-3.18518,1.35736,-0.697924,0.178324,-0.168613,1,-4.89859e-16,1.2,-2.93682,0.728334,0.00589858,0,0,0,3.30119,3.02579
9.90883,0.0738733,-3.15884,1.35864,-0.692149,0.255938,-0.177281,1,-4.89859e-16,1.2,-2.78252,1.02908,-0.0367225,0,0,0,3.29562,2.96694
9.94206,-0.0125106,-3.11538,1.35934,-0.687945,0.282504,-0.179203,1,-4.89859e-16,1.2,-2.60198,1.28488,0.102328,0,0,0,3.27966,2.90374
9.97239,-0.0611927,-3.0838,1.35941,-0.6729,0.344574,-0.180944,1,-4.89859e-16,1.2,-2.4465,1.50244,0.0843079,0,0,0,3.26517,2.87225
10.0082,-0.149216,-3.04501,1.35809,-0.651888,0.399369,-0.178291,1,-4.89859e-16,1.2,-2.20982,1.76181,0.161034,0,0,0,3.25849,2.83076
10.04,-0.219884,-3.01683,1.3562,-0.639262,0.423869,-0.174251,1,-4.89859e-16,1.2,-2.0302,1.92704,0.265401,0,0,0,3.25788,2.8117
10.0722,-0.284243,-2.98043,1.35419,-0.612214,0.467121,-0.16513,1,-4.89859e-16,1.2,-1.81653,2.11468,0.330733,0,0,0,3.24901,2.80732
10.1082,-0.34197,-2.93618,1.35205,-0.581767,0.507299,-0.155389,1,-4.89859e-16,1.2,-1.5959,2.28613,0.398607,0,0,0,3.23189,2.81641
10.14,-0.392844,-2.88454,1.34991,-0.570609,0.520349,-0.152123,1,-4.89859e-16,1.2,-1.40866,2.40637,0.539787,0,0,0,3.20672,2.84013
10.1718,-0.436726,-2.82598,1.34787,-0.542057,0.54888,-0.145264,1,-4.89859e-16,1.2,-1.19822,2.54157,0.628409,0,0,0,3.17367,2.87927
10.2078,-0.481462,-2.74365,1.34534,-0.512913,0.573055,-0.141303,1,-4.89859e-16,1.2,-0.952305,2.68488,0.750901,0,0,0,3.12145,2.94607
10.2399,-0.509336,-2.67119,1.34274,-0.4977,0.583167,-0.139867,1,-4.89859e-16,1.2,-0.764276,2.78038,0.845262,0,0,0,3.07144,3.00484
10.2724,-0.5306,-2.5937,1.33911,-0.463571,0.59719,-0.137349,1,-4.89859e-16,1.2,-0.572837,2.88691,0.855531,0,0,0,3.01486,3.06502
10.3075,-0.545624,-2.51182,1.33392,-0.421096,0.600764,-0.133289,1,-4.89859e-16,1.2,-0.384866,2.98923,0.825514,0,0,0,2.95231,3.12491
10.3394,-0.554711,-2.42616,1.32693,-0.396913,0.598137,-0.130768,1,-4.89859e-16,1.2,-0.207809,3.06599,0.832808,0,0,0,2.88435,3.18387
10.3715,-0.558092,-2.33721,1.31812,-0.34407,0.583671,-0.125061,1,-4.89859e-16,1.2,-0.0311223,3.15456,0.745681,0,0,0,2.81144,3.24164
10.4077,-0.574613,-2.23265,1.30377,-0.28524,0.55666,-0.118313,1,-4.89859e-16,1.2,0.162824,3.23554,0.62433,0,0,0,2.73403,3.29925
10.4394,-0.591479,-2.15109,1.29034,-0.254136,0.538407,-0.114503,1,-4.89859e-16,1.2,0.298839,3.27301,0.566011,0,0,0,2.67734,3.33501
10.473,-0.602043,-2.06675,1.27606,-0.1893,0.494737,-0.10822,1,-4.89859e-16,1.2,0.427737,3.31357,0.394968,0,0,0,2.61606,3.36433
10.5072,-0.606693,-1.98028,1.26147,-0.125233,0.444184,-0.105703,1,-4.89859e-16,1.2,0.53417,3.33099,0.209227,0,0,0,2.55083,3.38003
10.5391,-0.605998,-1.8923,1.24698,-0.0937618,0.416711,-0.105958,1,-4.89859e-16,1.2,0.624175,3.32204,0.138285,0,0,0,2.48238,3.383
10.5711,-0.600444,-1.80343,1.233,-0.0347898,0.3598,-0.10903,1,-4.89859e-16,1.2,0.692133,3.29946,-0.0480456,0,0,0,2.41141,3.37162
10.6075,-0.587408,-1.69205,1.21643,0.0179069,0.301943,-0.11535,1,-4.89859e-16,1.2,0.753387,3.24465,-0.213238,0,0,0,2.32016,3.33779
10.6394,-0.57282,-1.60323,1.20407,0.0415383,0.273597,-0.119456,1,-4.89859e-16,1.2,0.794184,3.188,-0.2737,0,0,0,2.24592,3.29682
10.6713,-0.55511,-1.51513,1.19238,0.0795825,0.219419,-0.128338,1,-4.89859e-16,1.2,0.807082,3.11896,-0.411367,0,0,0,2.17118,3.24785
10.7072,-0.534781,-1.42805,1.18124,0.105047,0.170521,-0.137054,1,-4.89859e-16,1.2,0.808375,3.04384,-0.503794,0,0,0,2.09648,3.1894
10.74,-0.506431,-1.32104,1.16818,0.114457,0.148618,-0.141074,1,-4.89859e-16,1.2,0.825118,2.94794,-0.513567,0,0,0,2.00387,3.10402
10.771,-0.488128,-1.25806,1.1608,0.129685,0.109962,-0.148079,1,-4.89859e-16,1.2,0.811782,2.88281,-0.572509,0,0,0,1.94904,3.04916
10.8071,-0.460522,-1.14932,1.14838,0.136922,0.0778836,-0.15276,1,-4.89859e-16,1.2,0.799979,2.78888,-0.592548,0,0,0,1.85923,2.96124
10.8392,-0.439452,-1.06151,1.13855,0.136168,0.0642801,-0.153878,1,-4.89859e-16,1.2,0.793608,2.71694,-0.582682,0,0,0,1.78958,2.88983
10.872,-0.417292,-0.975935,1.12918,0.127681,0.0427275,-0.153986,1,-4.89859e-16,1.2,0.784179,2.64896,-0.553455,0,0,0,1.72226,2.81749
10.9076,-0.394266,-0.892508,1.12039,0.114533,0.0262919,-0.151249,1,-4.89859e-16,1.2,0.780065,2.58479,-0.511583,0,0,0,1.65737,2.74798
10.9404,-0.370551,-0.811103,1.11203,0.108876,0.0221652,-0.14969,1,-4.89859e-16,1.2,0.774153,2.52371,-0.478309,0,0,0,1.595,2.68276
10.9714,-0.346209,-0.731618,1.10428,0.0929215,0.0148478,-0.144427,1,-4.89859e-16,1.2,0.776158,2.46564,-0.420496,0,0,0,1.53516,2.61889
11.0107,-0.315064,-0.634888,1.09546,0.0754428,0.0115005,-0.138405,1,-4.89859e-16,1.2,0.777237,2.39708,-0.352311,0,0,0,1.46404,2.54445
11.0423,-0.289622,-0.559477,1.08914,0.0676311,0.0104653,-0.135368,1,-4.89859e-16,1.2,0.774325,2.34552,-0.314132,0,0,0,1.41012,2.48993
11.074,-0.263756,-0.485688,1.08331,0.0545338,0.0106624,-0.128938,1,-4.89859e-16,1.2,0.778411,2.29845,-0.261763,0,0,0,1.35889,2.44076
11.1096,-0.237555,-0.413338,1.07819,0.0440567,0.0114632,-0.12275,1,-4.89859e-16,1.2,0.780939,2.25478,-0.216399,0,0,0,1.31043,2.39598
11.1413,-0.211042,-0.342397,1.07367,0.0407418,0.0118757,-0.119569,1,-4.89859e-16,1.2,0.778285,2.21054,-0.187984,0,0,0,1.26484,2.35108
11.1731,-0.184188,-0.272855,1.06982,0.0369616,0.0127976,-0.114133,1,-4.89859e-16,1.2,0.781893,2.16779,-0.160557,0,0,0,1.22217,2.31008
11.2087,-0.143994,-0.181301,1.0647,0.0333529,0.0144994,-0.109036,1,-4.89859e-16,1.2,0.787266,2.12188,-0.132494,0,0,0,1.16615,2.26709
11.2406,-0.110728,-0.108686,1.06097,0.030486,0.0162495,-0.10645,1,-4.89859e-16,1.2,0.789569,2.08696,-0.113347,0,0,0,1.12466,2.23421
11.2724,-0.0776109,-0.0377719,1.05774,0.0276065,0.0186967,-0.102551,1,-4.89859e-16,1.2,0.795468,2.05122,-0.093472,0,0,0,1.08762,2.20205
11.3097,-0.0446221,0.0314915,1.05493,0.030581,0.0186635,-0.0987486,1,-4.89859e-16,1.2,0.800096,2.01272,-0.0885185,0,0,0,1.05512,2.16772
11.3414,-0.0117707,0.0991216,1.05255,0.0346293,0.0180435,-0.0970106,1,-4.89859e-16,1.2,0.799593,1.97749,-0.0857301,0,0,0,1.02725,2.13475
11.3748,0.0209073,0.165209,1.05066,0.0430733,0.0161997,-0.0938925,1,-4.89859e-16,1.2,0.801309,1.94164,-0.0927725,0,0,0,1.0041,2.10254
11.4106,0.0614698,0.245577,1.04883,0.049527,0.0137897,-0.0907507,1,-4.89859e-16,1.2,0.801411,1.89035,-0.094283,0,0,0,0.981835,2.05538
11.4423,0.0936395,0.307988,1.04767,0.0526701,0.012463,-0.0893968,1,-4.89859e-16,1.2,0.799068,1.84828,-0.092529,0,0,0,0.969304,2.01574
11.4746,0.125523,0.368723,1.04681,0.0610943,0.00874469,-0.0858863,1,-4.89859e-16,1.2,0.798167,1.8039,-0.101668,0,0,0,0.961318,1.97521
11.5095,0.157077,0.42778,1.04626,0.0694334,0.00449831,-0.0834726,1,-4.89859e-16,1.2,0.795556,1.75906,-0.109726,0,0,0,0.957679,1.93371
11.5415,0.188275,0.485168,1.04593,0.0743607,0.00159437,-0.0821006,1,-4.89859e-16,1.2,0.788697,1.71326,-0.113081,0,0,0,0.958136,1.88947
11.5733,0.219047,0.540854,1.04587,0.0858059,-0.00577125,-0.0790745,1,-4.89859e-16,1.2,0.784297,1.66371,-0.127313,0,0,0,0.962376,1.84371
11.6091,0.260504,0.61252,1.0451,0.0958769,-0.0126564,-0.0765459,1,-4.89859e-16,1.2,0.775148,1.60262,-0.136969,0,0,0,0.972639,1.7855
11.6414,0.294694,0.669861,1.04428,0.101514,-0.017076,-0.0750806,1,-4.89859e-16,1.2,0.765624,1.55453,-0.138777,0,0,0,0.985098,1.73839
11.6732,0.327894,0.724984,1.04379,0.113257,-0.0259517,-0.0723873,1,-4.89859e-16,1.2,0.753224,1.50217,-0.153379,0,0,0,1.00086,1.68742
11.7089,0.360052,0.77787,1.04355,0.124931,-0.0352367,-0.0688345,1,-4.89859e-16,1.2,0.741691,1.44408,-0.166395,0,0,0,1.01936,1.63192
11.7412,0.391156,0.828439,1.04361,0.130921,-0.0401341,-0.0672102,1,-4.89859e-16,1.2,0.723099,1.38643,-0.164108,0,0,0,1.03993,1.57226
11.7736,0.421119,0.876701,1.04401,0.143457,-0.0500385,-0.0639341,1,-4.89859e-16,1.2,0.704533,1.32301,-0.174261,0,0,0,1.06209,1.509
11.8106,0.456989,0.933696,1.04477,0.153582,-0.0590688,-0.0602904,1,-4.89859e-16,1.2,0.681573,1.24311,-0.180572,0,0,0,1.09121,1.42915
11.8422,0.48441,0.976659,1.04553,0.157351,-0.063244,-0.058136,1,-4.89859e-16,1.2,0.658655,1.17942,-0.174182,0,0,0,1.11515,1.36206
11.874,0.510609,1.01724,1.04657,0.163213,-0.0691356,-0.0551069,1,-4.89859e-16,1.2,0.634025,1.11185,-0.166714,0,0,0,1.13922,1.29073
11.9096,0.535552,1.05532,1.04782,0.171552,-0.0762758,-0.0517745,1,-4.89859e-16,1.2,0.609813,1.04168,-0.162308,0,0,0,1.163,1.21792
11.9419,0.559233,1.091,1.04916,0.175262,-0.0794214,-0.0501687,1,-4.89859e-16,1.2,0.580716,0.973689,-0.153944,0,0,0,1.1863,1.14411
11.9736,0.581657,1.12424,1.0506,0.17973,-0.0840263,-0.0466262,1,-4.89859e-16,1.2,0.554693,0.906148,-0.148345,0,0,0,1.20882,1.07275
12.0093,0.611322,1.16845,1.05167,0.181079,-0.08747,-0.0431333,1,-4.89859e-16,1.2,0.518551,0.827156,-0.136008,0,0,0,1.24031,0.985688
12.0411,0.635183,1.20389,1.05228,0.18111,-0.0893737,-0.0413965,1,-4.89859e-16,1.2,0.489931,0.765627,-0.123594,0,0,0,1.2666,0.917329
12.0728,0.657424,1.23645,1.05307,0.181146,-0.0919141,-0.0381836,1,-4.89859e-16,1.2,0.459355,0.701582,-0.110373,0,0,0,1.29141,0.845817
12.1086,0.678072,1.26622,1.05402,0.181062,-0.0941919,-0.0352877,1,-4.89859e-16,1.2,0.429743,0.638317,-0.0956388,0,0,0,1.31463,0.775419
12.1412,0.697187,1.29325,1.05511,0.181135,-0.094878,-0.0342658,1,-4.89859e-16,1.2,0.398493,0.576764,-0.0789167,0,0,0,1.33611,0.705466
12.1724,0.71476,1.31767,1.05643,0.182981,-0.0967578,-0.0319972,1,-4.89859e-16,1.2,0.36682,0.515026,-0.0626507,0,0,0,1.35581,0.6354
12.2081,0.734613,1.34456,1.05832,0.184977,-0.0996702,-0.0304834,1,-4.89859e-16,1.2,0.325891,0.43797,-0.0414174,0,0,0,1.3778,0.547483
12.2407,0.748889,1.36324,1.06006,0.186134,-0.100997,-0.0298717,1,-4.89859e-16,1.2,0.29439,0.378277,-0.0234189,0,0,0,1.39322,0.479903
12.2725,0.761713,1.37944,1.06204,0.189468,-0.104413,-0.0290866,1,-4.89859e-16,1.2,0.26088,0.316181,-0.00515588,0,0,0,1.40665,0.409945
12.3084,0.773116,1.39312,1.06424,0.193061,-0.107348,-0.0283707,1,-4.89859e-16,1.2,0.227291,0.253555,0.010278,0,0,0,1.41799,0.340671
12.3404,0.783099,1.40435,1.06653,0.194488,-0.108306,-0.0278247,1,-4.89859e-16,1.2,0.192352,0.190811,0.0252141,0,0,0,1.42726,0.27211
12.3721,0.791637,1.41317,1.06891,0.197184,-0.109262,-0.0274898,1,-4.89859e-16,1.2,0.157079,0.128889,0.0416164,0,0,0,1.43445,0.207408
12.4081,0.802672,1.42788,1.07111,0.199122,-0.109469,-0.0269982,1,-4.89859e-16,1.2,0.115343,0.0549848,0.0593972,0,0,0,1.4472,0.140909
12.4405,0.810991,1.44017,1.07254,0.199755,-0.109279,-0.026853,1,-4.89859e-16,1.2,0.0818345,-0.0002546,0.0734341,0,0,0,1.4581,0.109952
12.4717,0.817812,1.44958,1.0741,0.200611,-0.107935,-0.0263537,1,-4.89859e-16,1.2,0.0522711,-0.0554034,0.0865697,0,0,0,1.4664,0.115309
12.5076,0.82321,1.4562,1.07565,0.201484,-0.104815,-0.0261695,1,-4.89859e-16,1.2,0.020803,-0.113724,0.0987551,0,0,0,1.47216,0.152048
12.5395,0.827213,1.46008,1.07727,0.201615,-0.103213,-0.0263995,1,-4.89859e-16,1.2,-0.00999393,-0.170842,0.114261,0,0,0,1.47538,0.205773
12.5714,0.829912,1.46134,1.07901,0.202212,-0.10002,-0.0275039,1,-4.89859e-16,1.2,-0.0370973,-0.226905,0.126814,0,0,0,1.47617,0.262572
12.6073,0.831565,1.45935,1.08127,0.202449,-0.0963647,-0.0285607,1,-4.89859e-16,1.2,-0.0716772,-0.297709,0.144293,0,0,0,1.47383,0.338509
12.6392,0.831554,1.455,1.08301,0.202075,-0.0943829,-0.0291241,1,-4.89859e-16,1.2,-0.0977234,-0.353816,0.154271,0,0,0,1.46939,0.398164
12.6711,0.830397,1.44824,1.08475,0.201146,-0.0901216,-0.0310756,1,-4.89859e-16,1.2,-0.124054,-0.40944,0.165291,0,0,0,1.46268,0.458641
12.7071,0.82812,1.43921,1.08649,0.200075,-0.0869742,-0.0338641,1,-4.89859e-16,1.2,-0.147851,-0.46268,0.176642,0,0,0,1.45387,0.516851
12.7391,0.824784,1.42796,1.08826,0.199469,-0.0860456,-0.0356343,1,-4.89859e-16,1.2,-0.170724,-0.516071,0.190976,0,0,0,1.44301,0.576149
12.7711,0.82044,1.4145,1.09015,0.198772,-0.0854036,-0.0398063,1,-4.89859e-16,1.2,-0.190092,-0.572328,0.204054,0,0,0,1.43008,0.636657
12.8073,0.81407,1.40112,1.09189,0.198417,-0.0860437,-0.0446928,1,-4.89859e-16,1.2,-0.213578,-0.635422,0.216998,0,0,0,1.41753,0.704603
12.8392,0.807998,1.39096,1.09308,0.19796,-0.0869611,-0.04747,1,-4.89859e-16,1.2,-0.2379,-0.685327,0.227467,0,0,0,1.40822,0.76027
12.8727,0.800818,1.37818,1.09439,0.197187,-0.0900622,-0.0539804,1,-4.89859e-16,1.2,-0.257775,-0.735035,0.241602,0,0,0,1.3965,0.815534
12.9081,0.792573,1.36288,1.09595,0.197788,-0.0957572,-0.061984,1,-4.89859e-16,1.2,-0.275936,-0.784728,0.256138,0,0,0,1.3825,0.870371
12.94,0.7833,1.34522,1.09763,0.198564,-0.0978524,-0.0650081,1,-4.89859e-16,1.2,-0.298267,-0.831162,0.271076,0,0,0,1.36641,0.923729
12.9719,0.772907,1.32532,1.09943,0.20048,-0.103641,-0.073062,1,-4.89859e-16,1.2,-0.31761,-0.879746,0.288228,0,0,0,1.34839,0.978726
13.0078,0.758364,1.29736,1.10175,0.200552,-0.107368,-0.0810457,1,-4.89859e-16,1.2,-0.343668,-0.939971,0.300011,0,0,0,1.32332,1.04483
13.04,0.745511,1.27272,1.10339,0.198127,-0.107245,-0.0856776,1,-4.89859e-16,1.2,-0.36569,-0.987012,0.298795,0,0,0,1.3015,1.09417
13.0726,0.731602,1.24619,1.1048,0.18908,-0.103729,-0.0933301,1,-4.89859e-16,1.2,-0.386189,-1.03502,0.288526,0,0,0,1.27831,1.14177
13.1083,0.71659,1.21789,1.1059,0.177838,-0.0981907,-0.100569,1,-4.89859e-16,1.2,-0.406307,-1.08346,0.27401,0,0,0,1.25396,1.18914
13.1405,0.700537,1.18787,1.10678,0.171287,-0.0953095,-0.105119,1,-4.89859e-16,1.2,-0.425896,-1.1263,0.268234,0,0,0,1.22857,1.23365
13.1735,0.679248,1.14816,1.1077,0.157029,-0.0898487,-0.114773,1,-4.89859e-16,1.2,-0.441774,-1.17673,0.253477,0,0,0,1.19569,1.28223
13.2092,0.659155,1.11983,1.10779,0.141136,-0.0837648,-0.125673,1,-4.89859e-16,1.2,-0.451339,-1.21214,0.233957,0,0,0,1.17418,1.31443
13.2407,0.637766,1.09154,1.1077,0.133042,-0.0805703,-0.131719,1,-4.89859e-16,1.2,-0.463951,-1.24061,0.226981,0,0,0,1.15377,1.34384
13.2726,0.615778,1.06171,1.10776,0.117468,-0.0758357,-0.145074,1,-4.89859e-16,1.2,-0.466394,-1.27062,0.210513,0,0,0,1.13286,1.36979
13.3083,0.59328,1.03064,1.10788,0.103509,-0.0715165,-0.159061,1,-4.89859e-16,1.2,-0.465918,-1.29265,0.192866,0,0,0,1.11181,1.38752
13.3406,0.57032,0.998562,1.10809,0.0969357,-0.0689341,-0.166296,1,-4.89859e-16,1.2,-0.472023,-1.30884,0.18588,0,0,0,1.09096,1.40372
13.3731,0.546894,0.965584,1.1084,0.08432,-0.0630839,-0.181881,1,-4.89859e-16,1.2,-0.467664,-1.32885,0.168326,0,0,0,1.07054,1.41877
13.4088,0.517032,0.923317,1.10886,0.0699807,-0.0558757,-0.198232,1,-4.89859e-16,1.2,-0.46176,-1.34404,0.148016,0,0,0,1.04598,1.42883
13.4432,0.49285,0.888947,1.10941,0.0615422,-0.0513014,-0.206706,1,-4.89859e-16,1.2,-0.459276,-1.34813,0.136753,0,0,0,1.02744,1.43076
13.4729,0.468508,0.85419,1.11011,0.0417566,-0.0402009,-0.226299,1,-4.89859e-16,1.2,-0.442287,-1.35628,0.105481,0,0,0,1.01005,1.43047
13.5118,0.437978,0.81042,1.11108,0.0242344,-0.0305157,-0.243042,1,-4.89859e-16,1.2,-0.425538,-1.35591,0.0780351,0,0,0,0.99023,1.42326
13.5405,0.419657,0.784103,1.11176,0.0151674,-0.0251539,-0.252627,1,-4.89859e-16,1.2,-0.416295,-1.35028,0.0630716,0,0,0,0.979491,1.41441
13.5726,0.395305,0.749075,1.1127,-0.00140833,-0.0168406,-0.272169,1,-4.89859e-16,1.2,-0.392056,-1.34321,0.0407632,0,0,0,0.966639,1.39985
13.6084,0.36081,0.706254,1.11334,-0.0196392,-0.0102398,-0.292463,1,-4.89859e-16,1.2,-0.367107,-1.32167,0.0169707,0,0,0,0.956487,1.37181
13.6408,0.331644,0.672787,1.11365,-0.0294518,-0.00736605,-0.302851,1,-4.89859e-16,1.2,-0.354606,-1.30004,0.00429787,0,0,0,0.95226,1.34754
13.6722,0.303247,0.639812,1.11414,-0.0479274,-0.00357248,-0.323668,1,-4.89859e-16,1.2,-0.326844,-1.27704,-0.0198148,0,0,0,0.949841,1.31835
13.7081,0.27568,0.607479,1.11475,-0.0655442,-0.000902876,-0.345056,1,-4.89859e-16,1.2,-0.299414,-1.24778,-0.0359738,0,0,0,0.949178,1.28371
13.7401,0.242531,0.568321,1.11606,-0.0785287,0.00190848,-0.357857,1,-4.89859e-16,1.2,-0.277478,-1.19957,-0.0370778,0,0,0,0.950681,1.2318
13.7726,0.223391,0.545563,1.1171,-0.100976,0.00790908,-0.377543,1,-4.89859e-16,1.2,-0.25066,-1.16815,-0.0560647,0,0,0,0.952698,1.19605
13.8085,0.192889,0.50919,1.11929,-0.127938,0.0168291,-0.399535,1,-4.89859e-16,1.2,-0.220046,-1.10407,-0.0690416,0,0,0,0.957714,1.1279
13.8404,0.169861,0.481659,1.12152,-0.142211,0.0216563,-0.410655,1,-4.89859e-16,1.2,-0.199313,-1.04614,-0.0668759,0,0,0,0.962956,1.06705
13.8723,0.148287,0.455713,1.12402,-0.170881,0.0327122,-0.433174,1,-4.89859e-16,1.2,-0.165467,-0.981932,-0.0790394,0,0,0,0.968948,0.998908
13.9081,0.128414,0.431485,1.12689,-0.20024,0.0461673,-0.455773,1,-4.89859e-16,1.2,-0.128841,-0.910268,-0.0836853,0,0,0,0.975288,0.923142
13.9406,0.110344,0.40908,1.1301,-0.214458,0.0531384,-0.467079,1,-4.89859e-16,1.2,-0.102921,-0.834728,-0.0736074,0,0,0,0.981693,0.844264
13.9725,0.0941926,0.388536,1.13339,-0.238218,0.0659863,-0.489019,1,-4.89859e-16,1.2,-0.0675554,-0.753752,-0.0729567,0,0,0,0.987868,0.760282
14.0083,0.0694613,0.36137,1.13699,-0.255793,0.0769722,-0.509432,1,-4.89859e-16,1.2,-0.0291369,-0.651588,-0.0656837,0,0,0,1.00023,0.655538
14.0406,0.0488095,0.339982,1.13943,-0.262125,0.0813678,-0.519197,1,-4.89859e-16,1.2,-0.00271757,-0.568906,-0.0548507,0,0,0,1.01194,0.571551
14.0723,0.0310808,0.320929,1.14166,-0.270847,0.0876634,-0.537084,1,-4.89859e-16,1.2,0.0299834,-0.483514,-0.042221,0,0,0,1.02235,0.486279
14.1079,0.0163318,0.304165,1.14374,-0.27621,0.0922854,-0.553221,1,-4.89859e-16,1.2,0.0618553,-0.397853,-0.0265715,0,0,0,1.03116,0.403509
14.1399,0.00447104,0.289616,1.14554,-0.277244,0.0938331,-0.560601,1,-4.89859e-16,1.2,0.0887432,-0.313254,-0.0149769,0,0,0,1.03823,0.325926
14.1718,-0.00462082,0.277136,1.14688,-0.273773,0.0933778,-0.573967,1,-4.89859e-16,1.2,0.117985,-0.227569,-0.00549445,0,0,0,1.0435,0.256395
14.2078,-0.0122638,0.264362,1.14789,-0.262121,0.0871635,-0.585165,1,-4.89859e-16,1.2,0.147753,-0.12744,0.00790724,0,0,0,1.04751,0.195281
14.2399,-0.0155511,0.25626,1.14835,-0.254002,0.0822788,-0.589974,1,-4.89859e-16,1.2,0.170699,-0.0518607,0.0193285,0,0,0,1.04866,0.179447
14.2717,-0.0164543,0.249934,1.14853,-0.233773,0.0717489,-0.601066,1,-4.89859e-16,1.2,0.190331,0.0208387,0.0271396,0,0,0,1.048,0.193383
14.3083,-0.0151599,0.245214,1.1485,-0.214477,0.0627515,-0.610834,1,-4.89859e-16,1.2,0.20742,0.0881669,0.0342652,0,0,0,1.04563,0.227971
14.3406,-0.0118132,0.241977,1.14835,-0.203189,0.0580108,-0.616572,1,-4.89859e-16,1.2,0.223021,0.150631,0.0396467,0,0,0,1.04163,0.272029
