timestamp,drone_x,drone_y,drone_z,drone_roll,drone_pitch,drone_yaw,target_x,target_y,target_z,drone_vx,drone_vy,drone_vz,target_vx,target_vy,target_vz,distance_error,velocity_error
0.00147711,0.0141399,-0.0264494,1.20184,3.80028e-05,-0.00075029,0.000438819,1,0,1.2,-0.00152446,0.0249291,-0.002699,0,0,0,0.986217,0.025121
0.0376862,0.0139119,-0.0270216,1.2016,1.86114e-05,-0.000855517,0.000440342,1,0,1.2,-0.00202467,0.0245852,-0.00102607,0,0,0,0.98646,0.0246897
0.0694717,0.0137559,-0.0273763,1.20145,0.000168462,-0.000824693,0.000565541,1,0,1.2,-0.00295965,0.023201,-0.00154612,0,0,0,0.986625,0.0234401
0.1013,0.0136287,-0.0276824,1.20132,0.000603187,-0.000499463,0.000404206,1,0,1.2,-0.00168141,0.0200672,0.00557303,0,0,0,0.986761,0.0208944
0.137281,0.0136197,-0.0280961,1.20172,0.0135694,0.0064806,6.97644e-05,1,0,1.2,0.00301642,0.0112515,0.0227581,0,0,0,0.986782,0.0255661
0.169231,0.0138298,-0.0287557,1.2027,0.0267935,0.0145623,-0.000369647,1,0,1.2,0.010667,0.000199982,0.0414089,0,0,0,0.986593,0.0427613
0.201189,0.0144093,-0.0297969,1.20428,0.0604352,0.0363164,-0.0011951,1,0,1.2,0.0222769,-0.0137308,0.0591742,0,0,0,0.98605,0.0647022
0.237076,0.0158015,-0.0319565,1.20682,0.09457,0.0602324,-0.00145112,1,0,1.2,0.0398947,-0.0432522,0.0746638,0,0,0,0.984741,0.0950633
0.26897,0.0175912,-0.0346519,1.20898,0.109645,0.0717,-0.00142562,1,0,1.2,0.060086,-0.0725307,0.0798775,0,0,0,0.983061,0.123497
0.301452,0.020083,-0.0389447,1.21085,0.133371,0.0915461,-0.00146796,1,0,1.2,0.0840841,-0.104658,0.0830782,0,0,0,0.980751,0.157878
0.337782,0.0234697,-0.0445241,1.2124,0.148926,0.106133,-0.0020188,1,0,1.2,0.112936,-0.144078,0.0835671,0,0,0,0.977623,0.201238
0.36992,0.0277621,-0.0513096,1.21356,0.153767,0.111444,-0.00253937,1,0,1.2,0.142667,-0.188362,0.0815253,0,0,0,0.973685,0.249961
0.401635,0.0330051,-0.0593618,1.21423,0.155516,0.115283,-0.00448672,1,0,1.2,0.174505,-0.229755,0.0743259,0,0,0,0.96892,0.297932
0.437466,0.0408225,-0.0709995,1.21445,0.145423,0.108532,-0.00778521,1,0,1.2,0.211272,-0.280091,0.0652694,0,0,0,0.96191,0.356857
0.469466,0.0480298,-0.0815741,1.2142,0.136791,0.10174,-0.0094303,1,0,1.2,0.23852,-0.315126,0.0574089,0,0,0,0.955564,0.399364
0.501745,0.0559797,-0.0930643,1.21368,0.113445,0.0825922,-0.0123432,1,0,1.2,0.261035,-0.347401,0.0427525,0,0,0,0.948695,0.43664
0.537701,0.0645201,-0.105348,1.21301,0.0854568,0.0596172,-0.0142551,1,0,1.2,0.278341,-0.372479,0.0276861,0,0,0,0.941483,0.465812
0.569531,0.0734968,-0.11828,1.21228,0.0713266,0.0486852,-0.0146791,1,0,1.2,0.28956,-0.392467,0.0195743,0,0,0,0.934103,0.488117
0.601674,0.0827547,-0.131637,1.21149,0.0447573,0.0287548,-0.0137138,1,0,1.2,0.295485,-0.405114,0.00224864,0,0,0,0.926714,0.501431
0.637452,0.0945058,-0.14861,1.21051,0.0205242,0.0113235,-0.0106345,1,0,1.2,0.296737,-0.411519,-0.0102762,0,0,0,0.917668,0.50745
0.669299,0.103895,-0.162197,1.20987,0.00894191,0.00323058,-0.0085747,1,0,1.2,0.293847,-0.410741,-0.0153325,0,0,0,0.910719,0.505262
0.701266,0.111535,-0.174056,1.20944,-0.0124775,-0.0112731,-0.00337976,1,0,1.2,0.283392,-0.403577,-0.0254038,0,0,0,0.905403,0.493793
0.737231,0.11856,-0.185201,1.20911,-0.0288963,-0.0211092,0.00316894,1,0,1.2,0.27105,-0.39275,-0.0331669,0,0,0,0.900732,0.478352
0.76916,0.125409,-0.19601,1.20886,-0.0370615,-0.0255166,0.00764621,1,0,1.2,0.256327,-0.377164,-0.0351007,0,0,0,0.896331,0.457371
0.801068,0.132007,-0.206382,1.20859,-0.0494836,-0.0315671,0.0159579,1,0,1.2,0.239731,-0.360304,-0.0402864,0,0,0,0.892232,0.434641
0.837074,0.13982,-0.218671,1.2084,-0.0579357,-0.0362216,0.0242052,1,0,1.2,0.218477,-0.337756,-0.0412184,0,0,0,0.887579,0.404364
0.869455,0.1457,-0.227871,1.20822,-0.0611655,-0.0378725,0.0290837,1,0,1.2,0.203403,-0.316517,-0.0413875,0,0,0,0.884207,0.378509
0.900971,0.151209,-0.236473,1.20801,-0.0624537,-0.0370953,0.038908,1,0,1.2,0.185575,-0.29638,-0.0404039,0,0,0,0.881153,0.352011
0.937079,0.157557,-0.246348,1.20767,-0.0584363,-0.0328271,0.0494153,1,0,1.2,0.164107,-0.270167,-0.0367746,0,0,0,0.877757,0.318235
0.968898,0.161085,-0.251799,1.20746,-0.0565998,-0.0308437,0.0548517,1,0,1.2,0.153072,-0.253492,-0.0336606,0,0,0,0.87592,0.298031
1.00086,0.165466,-0.258541,1.20718,-0.0537556,-0.0276141,0.0660563,1,0,1.2,0.137263,-0.233863,-0.0316359,0,0,0,0.873695,0.273009
1.03685,0.170498,-0.266197,1.20682,-0.0504113,-0.0234493,0.0784013,1,0,1.2,0.121418,-0.211597,-0.0294331,0,0,0,0.871195,0.245728
1.06887,0.174219,-0.271759,1.20651,-0.0476921,-0.0204938,0.0845633,1,0,1.2,0.113137,-0.194762,-0.0280756,0,0,0,0.869373,0.226981
1.10116,0.180046,-0.280863,1.20612,-0.0375963,-0.0126308,0.0974919,1,0,1.2,0.106218,-0.183725,-0.0219201,0,0,0,0.866745,0.213349
1.13718,0.186254,-0.290576,1.20572,-0.0213145,-0.000727696,0.111221,1,0,1.2,0.101868,-0.177385,-0.0140478,0,0,0,0.864089,0.205036
1.16909,0.192283,-0.299676,1.20557,-0.0112187,0.00652662,0.118466,1,0,1.2,0.103436,-0.173542,-0.00641849,0,0,0,0.861535,0.202131
1.20105,0.198253,-0.30833,1.20554,0.0118541,0.0224225,0.134595,1,0,1.2,0.105096,-0.176548,0.00279332,0,0,0,0.859009,0.20548
1.23697,0.205793,-0.318739,1.20557,0.0306633,0.0339434,0.149816,1,0,1.2,0.113101,-0.182187,0.00791824,0,0,0,0.855798,0.214585
1.26896,0.212069,-0.326963,1.20554,0.0371117,0.0374609,0.155854,1,0,1.2,0.121951,-0.193796,0.0090815,0,0,0,0.853095,0.229154
1.30143,0.218607,-0.335232,1.20557,0.0500672,0.0434851,0.171654,1,0,1.2,0.130643,-0.208034,0.0130337,0,0,0,0.850287,0.246
1.3376,0.225491,-0.343615,1.2056,0.0579538,0.0453098,0.187746,1,0,1.2,0.138316,-0.224198,0.0141808,0,0,0,0.847329,0.263813
1.36935,0.232657,-0.35218,1.20554,0.0602137,0.0452401,0.19582,1,0,1.2,0.145525,-0.24052,0.0136821,0,0,0,0.84432,0.281451
1.40153,0.240096,-0.360924,1.20551,0.0601656,0.0412955,0.211887,1,0,1.2,0.150627,-0.255242,0.0149979,0,0,0,0.841279,0.296753
1.4374,0.249711,-0.372026,1.20535,0.0516452,0.030079,0.227809,1,0,1.2,0.155164,-0.272462,0.0114047,0,0,0,0.837476,0.313754
1.46935,0.257623,-0.381033,1.20523,0.0454323,0.0225164,0.235894,1,0,1.2,0.156939,-0.2827,0.00866202,0,0,0,0.834468,0.323457
1.50135,0.265821,-0.39059,1.20529,0.0318318,0.00833515,0.252484,1,0,1.2,0.152167,-0.293327,0.0032116,0,0,0,0.83163,0.330464
1.53732,0.274035,-0.400273,1.20547,0.0165258,-0.00534077,0.26989,1,0,1.2,0.145152,-0.29854,-0.00207314,0,0,0,0.82902,0.331963
1.57043,0.282069,-0.409793,1.20572,0.00871716,-0.0120166,0.279063,1,0,1.2,0.138361,-0.299889,-0.00449619,0,0,0,0.826673,0.330299
1.60241,0.289855,-0.419181,1.20596,-0.00442494,-0.0221611,0.299395,1,0,1.2,0.125339,-0.302312,-0.00987897,0,0,0,0.824653,0.327414
1.63861,0.299065,-0.43069,1.20621,-0.0117572,-0.0257082,0.316272,1,0,1.2,0.108833,-0.296391,-0.0134665,0,0,0,0.822704,0.316028
1.67047,0.305925,-0.439613,1.20639,-0.0166375,-0.0271865,0.327804,1,0,1.2,0.0942401,-0.289237,-0.014472,0,0,0,0.821609,0.304547
1.70241,0.312319,-0.448273,1.20657,-0.0221724,-0.0271287,0.345604,1,0,1.2,0.080121,-0.2824,-0.0165071,0,0,0,0.820912,0.294009
1.73831,0.318285,-0.456631,1.20673,-0.0254477,-0.0237872,0.365965,1,0,1.2,0.065242,-0.273981,-0.0159973,0,0,0,0.820544,0.282096
1.77012,0.323831,-0.46463,1.20691,-0.0269689,-0.0216216,0.376503,1,0,1.2,0.0562365,-0.262217,-0.0151091,0,0,0,0.820446,0.268605
1.80331,0.32895,-0.472238,1.20706,-0.0296678,-0.0154873,0.400117,1,0,1.2,0.0415425,-0.250451,-0.0147373,0,0,0,0.820589,0.254301
1.84114,0.334828,-0.481213,1.20718,-0.0283177,-0.00818679,0.419922,1,0,1.2,0.0326209,-0.237516,-0.0129894,0,0,0,0.821018,0.240098
1.87359,0.339303,-0.487985,1.20731,-0.0244796,-0.00293331,0.431204,1,0,1.2,0.0304414,-0.228932,-0.00738971,0,0,0,0.821403,0.231066
1.9052,0.346197,-0.497323,1.20789,-0.00572288,0.0130629,0.458955,1,0,1.2,0.0280948,-0.224197,-0.000164054,0,0,0,0.821493,0.225951
1.94184,0.353675,-0.5071,1.20856,0.00829246,0.0231867,0.478183,1,0,1.2,0.0271558,-0.223789,0.00458591,0,0,0,0.821559,0.225477
1.97339,0.36102,-0.516413,1.20929,0.0166827,0.0283657,0.490192,1,0,1.2,0.0330588,-0.227157,0.00782337,0,0,0,0.821623,0.229683
2.00559,0.368402,-0.525386,1.21005,0.0330286,0.0381628,0.514519,1,0,1.2,0.036804,-0.233904,0.0128532,0,0,0,0.821613,0.23713
2.04159,0.377892,-0.536298,1.21088,0.0476227,0.0462245,0.539243,1,0,1.2,0.0456373,-0.24914,0.0165337,0,0,0,0.821433,0.253824
2.07338,0.385917,-0.544853,1.21149,0.0543695,0.0495952,0.551885,1,0,1.2,0.0585347,-0.263647,0.0184915,0,0,0,0.821033,0.270699
2.10511,0.394375,-0.553248,1.21198,0.0658523,0.0547583,0.577399,1,0,1.2,0.0673265,-0.278127,0.020022,0,0,0,0.820371,0.28686
2.14149,0.403269,-0.561581,1.21231,0.0689511,0.0547719,0.601971,1,0,1.2,0.0737433,-0.295728,0.0197605,0,0,0,0.81952,0.305424
2.17313,0.412606,-0.569807,1.21255,0.0678588,0.0527981,0.614268,1,0,1.2,0.083,-0.310774,0.0185299,0,0,0,0.818456,0.3222
2.20475,0.42238,-0.578018,1.21271,0.063917,0.0469842,0.638359,1,0,1.2,0.0881046,-0.329876,0.0148107,0,0,0,0.817258,0.34176
2.24038,0.435208,-0.588293,1.21271,0.0579127,0.0393881,0.662738,1,0,1.2,0.0917755,-0.348483,0.00978381,0,0,0,0.815622,0.360498
2.27229,0.445797,-0.596448,1.21252,0.0530662,0.0346047,0.674786,1,0,1.2,0.0960678,-0.358879,0.00521423,0,0,0,0.814278,0.371551
2.30418,0.455902,-0.606275,1.21219,0.0399052,0.0247542,0.699321,1,0,1.2,0.0929099,-0.371741,-0.000497836,0,0,0,0.814715,0.383176
2.33987,0.465986,-0.616486,1.21182,0.0278908,0.0164469,0.723465,1,0,1.2,0.0874522,-0.379671,-0.00680761,0,0,0,0.815699,0.389672
2.37181,0.476227,-0.626398,1.2114,0.0231798,0.0132202,0.735881,1,0,1.2,0.0851944,-0.383213,-0.00771899,0,0,0,0.816605,0.392645
2.40459,0.486515,-0.636025,1.21097,0.0183578,0.0107031,0.760761,1,0,1.2,0.0776055,-0.387057,-0.0083599,0,0,0,0.817505,0.394849
2.4404,0.499423,-0.647619,1.21048,0.0168082,0.0110702,0.785855,1,0,1.2,0.0701549,-0.387025,-0.00593366,0,0,0,0.818595,0.393377
2.47217,0.509722,-0.656557,1.21014,0.0154805,0.010873,0.798372,1,0,1.2,0.0665374,-0.386705,-0.00507456,0,0,0,0.819477,0.39242
2.5039,0.520013,-0.665239,1.20987,0.0131391,0.0117391,0.82375,1,0,1.2,0.0598515,-0.38636,-0.00471574,0,0,0,0.820383,0.390997
2.53977,0.530301,-0.673585,1.20956,0.0119871,0.0132581,0.849002,1,0,1.2,0.0533228,-0.384677,-0.0069322,0,0,0,0.821234,0.388417
2.57162,0.540584,-0.681637,1.2092,0.0108561,0.0136135,0.861806,1,0,1.2,0.0513569,-0.381847,-0.00752027,0,0,0,0.822057,0.385359
2.60444,0.553307,-0.691257,1.20874,0.00649191,0.0137765,0.88784,1,0,1.2,0.0438054,-0.374785,-0.00889093,0,0,0,0.823071,0.377441
2.63919,0.563337,-0.698566,1.2084,-0.004008,0.0125697,0.914499,1,0,1.2,0.0374983,-0.368223,-0.0117159,0,0,0,0.823857,0.370313
2.67494,0.573168,-0.705481,1.2081,-0.0109605,0.0116505,0.927814,1,0,1.2,0.0353921,-0.359404,-0.0116222,0,0,0,0.824593,0.361329
2.7065,0.584626,-0.71509,1.20798,-0.0223978,0.0100482,0.95476,1,0,1.2,0.0295517,-0.350235,-0.015776,0,0,0,0.827015,0.351833
2.74204,0.59628,-0.725066,1.20789,-0.0243356,0.0103675,0.982413,1,0,1.2,0.0209532,-0.342142,-0.0155728,0,0,0,0.829923,0.343137
2.77362,0.60749,-0.734392,1.20779,-0.022375,0.0109908,0.996164,1,0,1.2,0.0176107,-0.330658,-0.015244,0,0,0,0.832741,0.331477
2.80535,0.618198,-0.743042,1.20773,-0.0173233,0.0116122,1.02698,1,0,1.2,0.0104956,-0.318957,-0.0121797,0,0,0,0.835431,0.319362
2.84122,0.631006,-0.752966,1.20764,-0.0168624,0.0111925,1.05469,1,0,1.2,0.00608139,-0.305381,-0.0130742,0,0,0,0.838554,0.305721
2.87288,0.640852,-0.760284,1.20752,-0.0170317,0.0109075,1.06587,1,0,1.2,0.00597874,-0.297464,-0.0153363,0,0,0,0.840878,0.297919
2.90473,0.650357,-0.767128,1.20737,-0.017635,0.0102926,1.09618,1,0,1.2,-0.00154445,-0.289045,-0.0155624,0,0,0,0.843084,0.289467
2.9404,0.65951,-0.77352,1.20715,-0.0194769,0.00963755,1.12101,1,0,1.2,-0.00584269,-0.277805,-0.0181498,0,0,0,0.845173,0.278459
2.97223,0.668269,-0.77947,1.20691,-0.0210714,0.00909134,1.1347,1,0,1.2,-0.00863006,-0.267026,-0.0178932,0,0,0,0.847152,0.267764
3.00467,0.676693,-0.785022,1.20667,-0.0204523,0.00846923,1.16155,1,0,1.2,-0.0129273,-0.260701,-0.0160639,0,0,0,0.849018,0.261516
3.04627,0.686885,-0.791444,1.20651,-0.00731585,0.0082728,1.18774,1.0002,0.000204219,1.2,-0.0159142,-0.252884,-0.00630351,0.0125838,0.0125838,0,0.851421,0.267067
3.07863,0.69486,-0.796251,1.20651,0.00342524,0.00854008,1.20085,1.00092,0.000921142,1.2,-0.0169549,-0.250638,0.000550384,0.0267256,0.0267256,0,0.853931,0.280783
3.10925,0.706186,-0.804036,1.20648,0.0253776,0.00887603,1.22634,1.00147,0.00147285,1.2,-0.0212465,-0.253568,0.00674424,0.0337943,0.0337943,0,0.857951,0.292664
3.14511,0.718414,-0.812377,1.20639,0.0407498,0.00741782,1.25082,1.00296,0.00296391,1.2,-0.0245963,-0.260007,0.00725073,0.0479397,0.0479399,0,0.863592,0.316458
3.17607,0.730468,-0.820255,1.20621,0.0454318,0.00628788,1.26292,1.00497,0.00497021,1.2,-0.0263249,-0.268579,0.00676766,0.0620797,0.0620803,0,0.869705,0.34234
3.20753,0.742433,-0.827731,1.20587,0.0489035,0.00268855,1.28629,1.00617,0.0061671,1.2,-0.0321052,-0.27892,0.00320718,0.0691515,0.0691525,0,0.874629,0.362516
3.24298,0.757369,-0.836626,1.20538,0.0452299,-0.00236079,1.31118,1.00895,0.00894763,1.2,-0.038746,-0.291723,0.000950618,0.0832937,0.0832962,0,0.882222,0.394378
3.2747,0.769309,-0.843467,1.20499,0.0419672,-0.00410571,1.32003,1.01053,0.0105312,1.2,-0.0419962,-0.29966,0.000740132,0.0903637,0.0903675,0,0.887426,0.411875
3.30766,0.781155,-0.850032,1.20459,0.0304149,-0.00892508,1.3412,1.01408,0.0140853,1.2,-0.0492813,-0.302723,-0.00200772,0.104504,0.104512,0,0.894973,0.435309
3.34313,0.792822,-0.856418,1.20422,0.015483,-0.0128458,1.36118,1.01815,0.0181551,1.2,-0.059881,-0.303733,-0.00534002,0.118642,0.118657,0,0.903145,0.458598
3.37471,0.80419,-0.862666,1.20389,0.00546611,-0.0146791,1.37304,1.02038,0.0203835,1.2,-0.067339,-0.299864,-0.00787497,0.125711,0.125731,0,0.909137,0.467399
3.40638,0.815167,-0.86874,1.20355,-0.0106657,-0.016754,1.39196,1.02522,0.025227,1.2,-0.0757758,-0.293138,-0.0113632,0.139846,0.139879,0,0.918321,0.483866
3.44192,0.828201,-0.876144,1.20322,-0.0244719,-0.0177991,1.40833,1.03058,0.030588,1.2,-0.0857882,-0.278007,-0.013473,0.153982,0.154036,0,0.929049,0.4943
3.47405,0.838012,-0.881881,1.20297,-0.0308599,-0.018082,1.41693,1.03345,0.0334585,1.2,-0.0914938,-0.264847,-0.016577,0.161041,0.161108,0,0.935977,0.495466
3.50598,0.849162,-0.889432,1.20294,-0.0416194,-0.0171353,1.4338,1.03958,0.0395912,1.2,-0.0988889,-0.249254,-0.0202018,0.175166,0.175269,0,0.948343,0.505702
3.54167,0.860102,-0.897327,1.20294,-0.0480679,-0.0145886,1.45002,1.04623,0.046239,1.2,-0.108607,-0.23152,-0.0204496,0.189284,0.189435,0,0.961753,0.516101
3.57331,0.870138,-0.904935,1.20282,-0.0500816,-0.0132001,1.45781,1.04974,0.0497556,1.2,-0.113893,-0.213175,-0.0203515,0.196338,0.196521,0,0.971442,0.514304
3.60496,0.879288,-0.912233,1.2027,-0.0519081,-0.00893609,1.47294,1.05716,0.0571786,1.2,-0.118019,-0.19404,-0.0175324,0.210447,0.210706,0,0.985598,0.521552
3.64101,0.88954,-0.920879,1.20248,-0.0512088,-0.00376403,1.48731,1.06508,0.0651113,1.2,-0.120789,-0.170442,-0.0179217,0.224535,0.224893,0,1.0015,0.525223
3.67282,0.89683,-0.927388,1.20224,-0.0502502,-0.000932489,1.49448,1.06923,0.0692717,1.2,-0.119715,-0.151394,-0.0176431,0.231576,0.231994,0,1.01146,0.520291
3.70456,0.903353,-0.933552,1.20197,-0.0470727,0.00471954,1.50813,1.07797,0.078032,1.2,-0.11892,-0.133543,-0.017152,0.24573,0.246293,0,1.02655,0.52682
3.74113,0.909148,-0.939387,1.20175,-0.0427969,0.00963763,1.52109,1.08712,0.0871999,1.2,-0.11866,-0.117052,-0.0128754,0.259698,0.260442,0,1.0419,0.534624
3.77317,0.914332,-0.944878,1.20163,-0.0392216,0.012814,1.52857,1.09191,0.0920039,1.2,-0.114337,-0.104494,-0.0123135,0.266717,0.267568,0,1.05198,0.532714
3.80584,0.918946,-0.949987,1.20148,-0.0332785,0.0169207,1.5393,1.10186,0.101995,1.2,-0.10875,-0.0903267,-0.0129688,0.280734,0.281835,0,1.06777,0.53886
3.8415,0.923993,-0.955754,1.2012,-0.0251643,0.0231727,1.5514,1.11232,0.112501,1.2,-0.0988355,-0.0782265,-0.012016,0.294726,0.296134,0,1.08473,0.543306
3.87314,0.927596,-0.959847,1.20105,-0.0217516,0.0257954,1.55539,1.11774,0.117941,1.2,-0.0883639,-0.0700857,-0.00909947,0.301705,0.303289,0,1.09443,0.540042
3.90486,0.934495,-0.966878,1.20117,-0.0126943,0.0330121,1.5649,1.12894,0.12921,1.2,-0.0801428,-0.0669686,-0.0102425,0.31564,0.317633,0,1.1132,0.551967
3.94099,0.943856,-0.975868,1.20139,-0.00434332,0.040496,1.57401,1.14064,0.140991,1.2,-0.0653692,-0.0659636,-0.00825793,0.329538,0.332019,0,1.13406,0.560723
3.97233,0.949078,-0.980604,1.20154,-0.000982383,0.044274,1.57804,1.14667,0.147072,1.2,-0.056982,-0.0648307,-0.00663215,0.336469,0.339227,0,1.14486,0.564013
4.00414,0.955662,-0.986175,1.20175,0.00570079,0.0523477,1.5855,1.15911,0.159618,1.2,-0.043201,-0.0669541,-0.00357775,0.350296,0.353684,0,1.16372,0.576012
4.04038,0.96346,-0.991896,1.20206,0.0113722,0.0604256,1.59226,1.17203,0.172671,1.2,-0.0219186,-0.0717596,-0.00155482,0.364067,0.368196,0,1.1831,0.585276
4.07222,0.969437,-0.995415,1.2023,0.0139864,0.064608,1.59531,1.17866,0.179386,1.2,-0.00336886,-0.0761785,0.00283185,0.370927,0.375473,0,1.19329,0.586596
4.10401,0.975188,-0.997976,1.20261,0.018348,0.072742,1.60082,1.1923,0.193205,1.2,0.0175947,-0.0809098,0.00538024,0.384607,0.390089,0,1.21081,0.597132
4.14105,0.980809,-0.999562,1.20291,0.0210276,0.0801245,1.60549,1.20639,0.207513,1.2,0.037457,-0.0873123,0.00774572,0.398196,0.404762,0,1.22798,0.610188
4.17289,0.986335,-1.0002,1.20325,0.0217601,0.0837961,1.6079,1.21362,0.214863,1.2,0.0602857,-0.0940701,0.00927579,0.404967,0.412137,0,1.23614,0.612484
4.20507,0.991756,-0.99987,1.20352,0.0216354,0.0887725,1.61121,1.2284,0.229923,1.2,0.0826156,-0.0988439,0.00912069,0.418427,0.426938,0,1.25236,0.623938
4.24059,0.998389,-0.99804,1.20374,0.0206696,0.0918032,1.61344,1.24363,0.245489,1.2,0.114559,-0.106812,0.0102342,0.431793,0.441841,0,1.26749,0.633848
4.27239,1.00359,-0.995442,1.20386,0.0200414,0.0928054,1.61436,1.25142,0.25346,1.2,0.13895,-0.111117,0.0122418,0.438436,0.449334,0,1.27326,0.635568
4.30513,1.00878,-0.996472,1.20435,0.0182808,0.0932614,1.61598,1.2673,0.269769,1.2,0.161292,-0.115125,0.0135799,0.45163,0.464401,0,1.29237,0.64833
4.34084,1.01386,-0.997692,1.20483,0.0160376,0.0919106,1.61693,1.28365,0.28661,1.2,0.181083,-0.118916,0.0150356,0.464725,0.479628,0,1.31234,0.662521
4.37263,1.01887,-0.997619,1.20526,0.0148574,0.090646,1.61689,1.29192,0.295154,1.2,0.202193,-0.122942,0.0150949,0.471173,0.487237,0,1.3213,0.667006
4.40435,1.0238,-0.99626,1.2056,0.0132696,0.087845,1.61657,1.30884,0.312689,1.2,0.224535,-0.125884,0.0157424,0.484018,0.502638,0,1.33964,0.680161
4.44022,1.02986,-0.992899,1.20596,0.0137157,0.0847156,1.61558,1.32615,0.330706,1.2,0.249437,-0.130658,0.0175367,0.496693,0.518193,0,1.35638,0.694587
4.47223,1.03465,-0.988959,1.20624,0.0142086,0.0832833,1.61459,1.33495,0.339897,1.2,0.271406,-0.134009,0.0181784,0.502965,0.526035,0,1.36238,0.699719
4.50406,1.0394,-0.983907,1.20651,0.0143911,0.080299,1.61263,1.35282,0.358637,1.2,0.292071,-0.135829,0.0200659,0.51536,0.541853,0,1.37866,0.713802
4.53983,1.04408,-0.977842,1.20673,0.0144971,0.0774358,1.60974,1.37104,0.377847,1.2,0.311454,-0.136685,0.0199522,0.527541,0.557863,0,1.39457,0.727659
4.5718,1.04873,-0.970817,1.20691,0.0146568,0.0764233,1.60859,1.38028,0.387629,1.2,0.329572,-0.139591,0.0197678,0.533545,0.565946,0,1.39834,0.734696
4.60362,1.05335,-0.962852,1.207,0.0142259,0.0740021,1.60524,1.39899,0.407543,1.2,0.348751,-0.140833,0.0185876,0.545368,0.582282,0,1.41333,0.749599
4.63963,1.05909,-0.951666,1.20694,0.0137792,0.0711986,1.60091,1.41801,0.427918,1.2,0.371405,-0.141435,0.0174852,0.556922,0.598854,0,1.42553,0.763381
4.6716,1.06364,-0.941744,1.20685,0.0134813,0.0702383,1.5991,1.42762,0.438275,1.2,0.389142,-0.142305,0.0190313,0.562589,0.607235,0,1.42723,0.769582
4.70333,1.06891,-0.933766,1.20691,0.0128447,0.0674168,1.59401,1.44706,0.459338,1.2,0.406322,-0.143352,0.0181597,0.573693,0.624208,0,1.44353,0.785806
4.74042,1.07571,-0.923537,1.20691,0.0124411,0.0652285,1.58904,1.46674,0.480844,1.2,0.424062,-0.143736,0.0176753,0.584456,0.641471,0,1.45782,0.801616
4.77171,1.07971,-0.916698,1.20691,0.0124803,0.0639423,1.58622,1.47667,0.491767,1.2,0.433297,-0.142902,0.0177313,0.589702,0.650221,0,1.46335,0.808592
4.80422,1.08496,-0.906857,1.20691,0.0124276,0.0621296,1.57979,1.49666,0.513921,1.2,0.446003,-0.141682,0.0192267,0.599891,0.667956,0,1.47924,0.824357
4.83947,1.09142,-0.893471,1.20688,0.0124391,0.0608169,1.57264,1.51685,0.536518,1.2,0.460306,-0.139971,0.0183422,0.609658,0.686053,0,1.49195,0.839618
4.87128,1.09655,-0.881959,1.20682,0.0127437,0.0604279,1.56867,1.527,0.547964,1.2,0.470808,-0.139684,0.0186551,0.614365,0.695233,0,1.49332,0.847374
4.90365,1.10159,-0.869782,1.20682,0.0130198,0.0595288,1.56041,1.5474,0.571194,1.2,0.483492,-0.135725,0.0210526,0.623416,0.713912,0,1.50838,0.861339
4.94022,1.1066,-0.856912,1.20679,0.0128407,0.0591138,1.55192,1.56792,0.594836,1.2,0.496831,-0.133873,0.0213324,0.63193,0.733015,0,1.5233,0.877612
4.97206,1.11159,-0.84337,1.20679,0.0131241,0.0589937,1.5475,1.57819,0.60679,1.2,0.507964,-0.131896,0.022271,0.635964,0.74272,0,1.52339,0.884213
5.00386,1.11658,-0.829266,1.20682,0.0129793,0.0584636,1.53775,1.59879,0.631018,1.2,0.517906,-0.130517,0.0234554,0.643569,0.762506,0,1.53786,0.902126
5.03993,1.12291,-0.810854,1.20688,0.0129956,0.0578272,1.52787,1.6194,0.655632,1.2,0.532471,-0.128719,0.0239633,0.650496,0.782794,0,1.54827,0.919434
5.07155,1.128,-0.795506,1.20691,0.0128942,0.0576577,1.52296,1.6297,0.668076,1.2,0.543532,-0.127588,0.0219806,0.653683,0.793133,0,1.5472,0.927547
5.10396,1.13428,-0.781031,1.20715,0.0123564,0.0567821,1.51256,1.65027,0.693254,1.2,0.553077,-0.123849,0.0216332,0.659465,0.814243,0,1.56199,0.944353
5.13975,1.14082,-0.766411,1.20746,0.0117704,0.0567587,1.50173,1.67075,0.718775,1.2,0.563413,-0.118005,0.0231444,0.664384,0.835932,0,1.57691,0.959545
5.17205,1.14724,-0.751181,1.2077,0.0112303,0.0567856,1.49621,1.68095,0.73167,1.2,0.572753,-0.116732,0.0258425,0.666494,0.847013,0,1.57599,0.968638
5.20394,1.15363,-0.735375,1.20792,0.0102514,0.0570981,1.48324,1.70122,0.757707,1.2,0.58385,-0.113358,0.0264239,0.669957,0.869661,0,1.59035,0.987137
5.24044,1.16154,-0.714823,1.20816,0.00944228,0.05754,1.47116,1.72131,0.784075,1.2,0.596813,-0.10729,0.0273759,0.672324,0.893001,0,1.60003,1.00351
5.27155,1.16785,-0.697753,1.20828,0.00905409,0.0577376,1.46629,1.73126,0.797373,1.2,0.609718,-0.107122,0.0280047,0.673061,0.904937,0,1.59778,1.01443
5.30341,1.17414,-0.680125,1.20831,0.00822193,0.0584237,1.45369,1.75098,0.824221,1.2,0.621055,-0.100574,0.027645,0.673566,0.929397,0,1.61117,1.03168
5.33934,1.1804,-0.66201,1.20822,0.00705637,0.0594017,1.44037,1.77034,0.851316,1.2,0.63068,-0.0927348,0.0281937,0.672665,0.954603,0,1.62427,1.04856
5.37125,1.18662,-0.643452,1.20807,0.00634935,0.0597427,1.43375,1.78,0.865128,1.2,0.640384,-0.0897767,0.0272123,0.671628,0.967664,0,1.62111,1.05825
5.40315,1.19282,-0.624406,1.20795,0.00565842,0.0609724,1.41899,1.7987,0.892499,1.2,0.652831,-0.0801257,0.0279644,0.668347,0.993994,0,1.63345,1.0746
5.4391,1.20055,-0.599935,1.20767,0.00542785,0.0619848,1.40621,1.81706,0.920269,1.2,0.665481,-0.0715513,0.0295752,0.66324,1.02134,0,1.64048,1.0933
5.47106,1.20673,-0.579874,1.20737,0.00540261,0.0627645,1.39914,1.82635,0.934707,1.2,0.676008,-0.0682751,0.0309515,0.659828,1.03582,0,1.63644,1.10465
5.50351,1.21431,-0.55975,1.20709,0.00507473,0.0640535,1.3849,1.84362,0.962352,1.2,0.686234,-0.0609363,0.0321472,0.651745,1.06406,0,1.64708,1.12598
5.53928,1.22224,-0.539264,1.20688,0.00447194,0.065261,1.37007,1.86059,0.990664,1.2,0.699296,-0.051126,0.0348899,0.641198,1.0937,0,1.65778,1.14683
5.57121,1.23006,-0.518278,1.2067,0.00456552,0.0660736,1.36271,1.86884,1.00489,1.2,0.710223,-0.0476118,0.0381291,0.634967,1.10886,0,1.6517,1.15955
5.60314,1.2378,-0.496784,1.20663,0.00402359,0.0668755,1.34736,1.8848,1.03347,1.2,0.723074,-0.0360063,0.0409609,0.620408,1.1399,0,1.66142,1.18109
5.63901,1.2474,-0.46924,1.20654,0.00370807,0.0681393,1.33202,1.90001,1.06219,1.2,0.738505,-0.0273356,0.0416558,0.602813,1.17183,0,1.6647,1.20754
5.67103,1.25508,-0.44671,1.20642,0.00350576,0.0685976,1.32394,1.90731,1.07661,1.2,0.748989,-0.0224811,0.0418661,0.592768,1.18813,0,1.65709,1.22137
5.70281,1.26273,-0.423732,1.2063,0.00267037,0.0691763,1.30782,1.9213,1.10557,1.2,0.761831,-0.00986313,0.041736,0.56994,1.22139,0,1.66509,1.24682
5.73881,1.27038,-0.400343,1.20612,0.00197696,0.0697536,1.29136,1.93433,1.13455,1.2,0.771831,0.000666658,0.0433437,0.54325,1.25529,0,1.67235,1.27601
5.77089,1.27807,-0.37655,1.20596,0.00173754,0.0698467,1.28319,1.94049,1.14908,1.2,0.784332,0.00606573,0.0452209,0.528299,1.27248,0,1.66325,1.29283
5.80281,1.28573,-0.352322,1.20581,0.000730411,0.0698882,1.26638,1.95205,1.1782,1.2,0.795027,0.0206567,0.0467981,0.494916,1.30725,0,1.66928,1.32196
5.83871,1.29533,-0.321471,1.20572,-0.000329627,0.0695088,1.24964,1.96253,1.20734,1.2,0.8095,0.0348778,0.0484485,0.456549,1.34228,0,1.66807,1.35507
5.87063,1.30301,-0.296311,1.20569,-0.00100218,0.0689954,1.24097,1.96735,1.22191,1.2,0.821443,0.0434853,0.050188,0.435359,1.3598,0,1.65722,1.37269
5.90258,1.31111,-0.271714,1.2059,-0.00205044,0.0680675,1.2236,1.97608,1.25107,1.2,0.830084,0.0605643,0.050958,0.388648,1.39466,0,1.66165,1.40615
5.93872,1.31927,-0.247012,1.20621,-0.00286442,0.0668601,1.20631,1.98356,1.28018,1.2,0.838245,0.07465,0.0522607,0.335821,1.42886,0,1.66542,1.44536
5.97066,1.32744,-0.221869,1.20654,-0.00319941,0.0663453,1.19773,1.98681,1.29472,1.2,0.847131,0.0816113,0.052945,0.306975,1.44556,0,1.65374,1.46797
6.00403,1.33562,-0.196337,1.20685,-0.00427237,0.0647495,1.17834,1.9923,1.32372,1.2,0.85413,0.0977606,0.0509209,0.24421,1.47775,0,1.65585,1.50963
6.0401,1.34581,-0.163923,1.20715,-0.00478545,0.0635334,1.16276,1.99986,1.40237,1.2,0.861504,0.113027,0.0502767,0.0350668,1.49959,0,1.69739,1.61496
6.07211,1.35394,-0.137614,1.20731,-0.00504555,0.0626863,1.15402,1.99914,1.44316,1.2,0.869004,0.120962,0.0490294,-0.0894428,1.49733,0,1.70739,1.67792
6.10381,1.36212,-0.110971,1.20746,-0.00568901,0.0606153,1.13654,1.98759,1.5212,1.2,0.874817,0.134759,0.0468539,-0.352639,1.45796,0,1.74793,1.80546
6.13963,1.37038,-0.0840313,1.20755,-0.00631871,0.059069,1.11897,1.96283,1.59381,1.2,0.879351,0.149742,0.0461156,-0.612279,1.36935,0,1.77938,1.92731
6.17258,1.37866,-0.0568094,1.20755,-0.00690161,0.0589226,1.10997,1.94488,1.62936,1.2,0.886527,0.158315,0.0455085,-0.737469,1.30619,0,1.77872,1.98924
6.20448,1.38699,-0.0292438,1.20749,-0.00929154,0.0608559,1.09236,1.90148,1.69282,1.2,0.892202,0.176163,0.0481999,-0.946083,1.16401,0,1.79729,2.08745
6.24017,1.39744,0.00569998,1.2074,-0.0148407,0.0661406,1.07491,1.84529,1.75175,1.2,0.901476,0.193825,0.0571739,-1.11322,1.00536,0,1.80258,2.17275
6.27361,1.40582,0.0341339,1.20746,-0.0193754,0.069308,1.0661,1.81289,1.779,1.2,0.910329,0.207883,0.066246,-1.18015,0.925873,0,1.79174,2.21134
6.3054,1.41466,0.0633206,1.20819,-0.0318379,0.0765695,1.04836,1.73997,1.82901,1.2,0.917397,0.231268,0.0837318,-1.28541,0.773127,0,1.79543,2.27002
6.34118,1.42352,0.0931523,1.20926,-0.0489497,0.0833115,1.03095,1.65707,1.87287,1.2,0.925426,0.257785,0.10374,-1.35993,0.63292,0,1.795,2.31826
6.37283,1.43205,0.12361,1.21048,-0.0591531,0.0861024,1.0224,1.61225,1.89244,1.2,0.934982,0.28209,0.117583,-1.38828,0.568054,0,1.77802,2.34374
6.40464,1.44017,0.154803,1.21185,-0.0847892,0.0888988,1.00376,1.51658,1.92678,1.2,0.943121,0.319127,0.137114,-1.43147,0.448225,0,1.77366,2.38204
6.44042,1.44956,0.194953,1.21378,-0.108612,0.086895,0.989351,1.41394,1.95464,1.2,0.952487,0.364636,0.157623,-1.46099,0.339886,0,1.7601,2.41874
6.47227,1.45623,0.228056,1.21548,-0.123027,0.0835448,0.981965,1.36044,1.9661,1.2,0.95983,0.405815,0.171887,-1.47184,0.289276,0,1.74075,2.44052
6.50412,1.46191,0.262117,1.21738,-0.152342,0.0724094,0.967502,1.24999,1.98406,1.2,0.962085,0.458469,0.189591,-1.48746,0.193567,0,1.73502,2.47111
6.53992,1.46646,0.297236,1.21936,-0.180133,0.0550011,0.954841,1.13617,1.99534,1.2,0.963242,0.515095,0.201428,-1.49645,0.103086,0,1.73003,2.50208
6.5718,1.46966,0.333392,1.2215,-0.193632,0.0440567,0.949193,1.07844,1.99846,1.2,0.959689,0.575012,0.214568,-1.49884,0.0590115,0,1.71054,2.52124
6.60364,1.47118,0.370561,1.22382,-0.221009,0.0146575,0.938122,0.962514,1.99965,1.2,0.949014,0.644684,0.225075,-1.49974,-0.0281345,0,1.70682,2.54945
6.63955,1.47035,0.418421,1.22702,-0.241662,-0.0137916,0.930435,0.847044,1.99411,1.2,0.927171,0.735034,0.247966,-1.4955,-0.116077,0,1.69471,2.57977
6.67143,1.46716,0.457691,1.22995,-0.252161,-0.0314949,0.92684,0.789971,1.98882,1.2,0.901082,0.808551,0.270007,-1.49133,-0.161084,0,1.67446,2.59552
6.7033,1.46516,0.494741,1.23361,-0.270436,-0.0692892,0.920314,0.678164,1.97322,1.2,0.862644,0.887473,0.288838,-1.47823,-0.25465,0,1.67523,2.6206
6.74163,1.45973,0.541003,1.23877,-0.284821,-0.110044,0.914421,0.57069,1.95098,1.2,0.803454,0.988855,0.315891,-1.45737,-0.355079,0,1.66731,2.64901
6.77324,1.45388,0.569247,1.24207,-0.290387,-0.131351,0.911551,0.519014,1.93738,1.2,0.760631,1.05141,0.334152,-1.44325,-0.40869,0,1.65757,2.6647
6.80503,1.4429,0.607279,1.24661,-0.297918,-0.179658,0.905434,0.420715,1.90532,1.2,0.692982,1.13771,0.350743,-1.40542,-0.52421,0,1.65286,2.69968
6.84123,1.42386,0.654946,1.25232,-0.298899,-0.219393,0.900308,0.330213,1.86684,1.2,0.592715,1.23722,0.3776,-1.35061,-0.652576,0,1.63325,2.73686
6.87314,1.40427,0.692829,1.25677,-0.297463,-0.24102,0.89695,0.288273,1.84524,1.2,0.505758,1.31403,0.404605,-1.31483,-0.721956,0,1.60522,2.76107
6.90544,1.38073,0.730231,1.26099,-0.288783,-0.282669,0.889412,0.211706,1.79739,1.2,0.402716,1.39028,0.416269,-1.22146,-0.870645,0,1.58403,2.81479
6.9418,1.3457,0.775834,1.26587,-0.274574,-0.321212,0.881034,0.14576,1.74349,1.2,0.266758,1.47743,0.441066,-1.09161,-1.02878,0,1.54291,2.88458
6.97315,1.32166,0.802409,1.26852,-0.26562,-0.339131,0.876503,0.11704,1.71432,1.2,0.180879,1.52387,0.456751,-1.01045,-1.1086,0,1.51241,2.92536
7.00472,1.28603,0.83672,1.27176,-0.243722,-0.37214,0.867225,0.0686156,1.65169,1.2,0.0556147,1.58579,0.470459,-0.813556,-1.26021,0,1.46677,3.01272
7.04043,1.23583,0.877316,1.2753,-0.21695,-0.400433,0.857363,0.0327199,1.58348,1.2,-0.104892,1.64896,0.491807,-0.575353,-1.38527,0,1.39707,3.10962
7.07303,1.19121,0.907656,1.27768,-0.201697,-0.412511,0.852295,0.0196382,1.54739,1.2,-0.234842,1.68992,0.519209,-0.445807,-1.43222,0,1.33711,3.17204
7.10559,1.15422,0.93928,1.27951,-0.167585,-0.433084,0.842053,0.00339634,1.47129,1.2,-0.367185,1.72455,0.517904,-0.181023,-1.48904,0,1.27033,3.26038
7.14141,1.11635,0.969324,1.28085,-0.128168,-0.446971,0.831892,0.000566102,1.39022,1.2,-0.503173,1.75091,0.50448,0.0701208,-1.49836,0,1.19526,3.33781
7.17313,1.07394,0.996355,1.28171,-0.10624,-0.451261,0.827268,0.00419847,1.34793,1.2,-0.633185,1.76119,0.518115,0.184452,-1.48862,0,1.129,3.39091
7.20499,1.0274,1.0201,1.28226,-0.0579383,-0.454319,0.818967,0.0215015,1.25996,1.2,-0.767173,1.76779,0.490911,0.385025,-1.44974,0,1.03736,3.45269
7.24063,0.964106,1.04478,1.28262,-0.0045418,-0.449994,0.812389,0.0519638,1.16776,1.2,-0.928161,1.75931,0.456233,0.547325,-1.39658,0,0.924097,3.51353
7.27251,0.910009,1.0605,1.28244,0.0219877,-0.444439,0.810158,0.0720162,1.12016,1.2,-1.04767,1.73709,0.4409,0.615304,-1.36799,0,0.844149,3.54985
7.3044,0.853383,1.07261,1.28171,0.0710053,-0.424482,0.808311,0.121417,1.02216,1.2,-1.16794,1.71039,0.36691,0.728549,-1.31119,0,0.738237,3.58626
7.34023,0.794743,1.08102,1.28036,0.113767,-0.39318,0.809976,0.182635,0.920738,1.2,-1.28033,1.66975,0.283647,0.816583,-1.25825,0,0.637827,3.61257
7.37239,0.734575,1.08575,1.27847,0.133955,-0.373277,0.812109,0.217442,0.868818,1.2,-1.37693,1.61221,0.253889,0.852893,-1.23393,0,0.566253,3.62451
7.40431,0.673414,1.08673,1.27637,0.173877,-0.326673,0.819197,0.294788,0.762894,1.2,-1.46563,1.54799,0.158801,0.912888,-1.19022,0,0.504042,3.63048
7.44018,0.596421,1.08264,1.27405,0.216359,-0.272756,0.828536,0.381647,0.654369,1.2,-1.55544,1.44616,0.0729526,0.959148,-1.15327,0,0.484796,3.61739
7.47218,0.535229,1.0751,1.27295,0.238562,-0.243853,0.833837,0.428257,0.599278,1.2,-1.60648,1.34627,0.0582811,0.978023,-1.13731,0,0.493121,3.58485
7.50417,0.477314,1.07413,1.27319,0.285537,-0.182949,0.844711,0.52714,0.487571,1.2,-1.64135,1.23305,-0.0309986,1.00868,-1.11021,0,0.593201,3.53758
7.54007,0.421809,1.07206,1.27484,0.334267,-0.119882,0.85571,0.632347,0.374264,1.2,-1.65767,1.09933,-0.111604,1.03123,-1.0893,0,0.732701,3.46882
7.57194,0.368805,1.06559,1.27777,0.358845,-0.0880883,0.860688,0.686897,0.317115,1.2,-1.65603,0.962233,-0.0999669,1.03986,-1.08106,0,0.81697,3.38421
7.60407,0.31903,1.05499,1.28204,0.407647,-0.0261672,0.868595,0.798993,0.202041,1.2,-1.64489,0.794622,-0.146495,1.05241,-1.06884,0,0.982148,3.28168
7.64035,0.262376,1.03638,1.28894,0.453796,0.0322809,0.873215,0.913802,0.0862782,1.2,-1.60997,0.576182,-0.141315,1.05918,-1.06214,0,1.1554,3.13503
7.67214,0.22225,1.0175,1.29541,0.475344,0.059785,0.873895,0.971736,0.0282664,1.2,-1.56558,0.401993,-0.0912881,1.0605,-1.06082,0,1.24475,3.0074
7.70402,0.187193,0.995304,1.30234,0.514627,0.110517,0.871663,1.08769,-0.0877714,1.2,-1.51388,0.202089,-0.067415,1.05912,-1.06219,0,1.41224,2.86763
7.74039,0.157572,0.970011,1.30939,0.546844,0.155771,0.86498,1.20245,-0.20351,1.2,-1.44781,-0.00173585,-0.0160715,1.05229,-1.06896,0,1.57509,2.71841
7.77224,0.133796,0.941679,1.31638,0.560317,0.176144,0.859865,1.25892,-0.26116,1.2,-1.37173,-0.187676,0.0761322,1.04673,-1.07441,0,1.65114,2.57702
7.80439,0.116107,0.910411,1.32315,0.582111,0.211859,0.846691,1.36904,-0.375726,1.2,-1.28337,-0.390003,0.166042,1.03098,-1.08953,0,1.79976,2.42346
7.84067,0.102777,0.867332,1.33102,0.596682,0.24076,0.830081,1.47418,-0.489025,1.2,-1.16228,-0.626621,0.3049,1.00834,-1.11052,0,1.93329,2.24471
7.87244,0.0992547,0.829735,1.33673,0.601958,0.252392,0.82064,1.52446,-0.545092,1.2,-1.06237,-0.801365,0.425138,0.994065,-1.12331,0,1.98495,2.12445
7.90426,0.0824739,0.795019,1.34161,0.609489,0.270916,0.80044,1.61952,-0.655779,1.2,-0.950375,-0.976649,0.547514,0.958628,-1.1537,0,2.11835,1.99384
7.94013,0.0672952,0.758868,1.34595,0.61434,0.282771,0.778851,1.70626,-0.764267,1.2,-0.8371,-1.14116,0.674577,0.912214,-1.19074,0,2.2422,1.87553
7.97194,0.0602229,0.719285,1.34976,0.615967,0.28596,0.768149,1.74614,-0.817564,1.2,-0.733818,-1.29486,0.798062,0.884047,-1.2118,0,2.28618,1.8059
8.0039,0.0609973,0.676375,1.353,0.618107,0.287483,0.744969,1.81823,-0.922072,1.2,-0.60787,-1.44787,0.928215,0.81558,-1.2589,0,2.3804,1.70983
8.03983,0.0724777,0.618046,1.35605,0.618819,0.282894,0.727597,1.87936,-1.02356,1.2,-0.470034,-1.63381,1.07738,0.727149,-1.31197,0,2.44623,1.64243
8.07176,0.0896834,0.567631,1.3576,0.618526,0.278437,0.718772,1.90546,-1.07291,1.2,-0.368616,-1.78009,1.18341,0.673953,-1.34007,0,2.4522,1.63739
8.10363,0.11368,0.513908,1.35825,0.615986,0.265333,0.702246,1.94859,-1.16917,1.2,-0.254603,-1.92439,1.28827,0.545164,-1.39742,0,2.49493,1.60529
8.13955,0.144102,0.45687,1.35806,0.610818,0.247205,0.688273,1.97881,-1.26112,1.2,-0.148333,-2.06959,1.37639,0.382679,-1.45036,0,2.51846,1.59996
8.17192,0.180511,0.396538,1.35684,0.607067,0.236286,0.681666,1.98904,-1.30563,1.2,-0.0648281,-2.21264,1.44829,0.287008,-1.47229,0,2.48852,1.66417
8.20378,0.222504,0.332929,1.35458,0.597097,0.210844,0.669649,1.99948,-1.39131,1.2,0.0256542,-2.36238,1.50084,0.0670268,-1.4985,0,2.48083,1.7322
8.24002,0.282288,0.248857,1.35016,0.583714,0.181701,0.659122,1.99648,-1.47232,1.2,0.121052,-2.55129,1.54582,-0.18444,-1.48862,0,2.43381,1.90057
8.27223,0.335489,0.177958,1.34552,0.575409,0.166079,0.654276,1.98994,-1.51095,1.2,0.176291,-2.69615,1.5795,-0.316614,-1.4662,0,2.36871,2.06168
8.30491,0.378504,0.110757,1.33997,0.555244,0.132664,0.645063,1.96609,-1.58631,1.2,0.231191,-2.84765,1.56447,-0.585491,-1.38101,0,2.32811,2.29468
8.34067,0.421842,0.0420946,1.33344,0.529491,0.0973188,0.636114,1.93084,-1.65253,1.2,0.276105,-2.99964,1.52088,-0.816369,-1.25839,0,2.27302,2.55705
8.3726,0.470019,-0.0302582,1.32611,0.514735,0.0792635,0.631816,1.90808,-1.68452,1.2,0.301268,-3.12668,1.50857,-0.920267,-1.18453,0,2.19556,2.74588
8.40517,0.522443,-0.106212,1.31808,0.477678,0.0389016,0.622737,1.85346,-1.74422,1.2,0.327349,-3.28185,1.41108,-1.09354,-1.02673,0,2.11391,3.0159
8.44165,0.59306,-0.20596,1.30737,0.442146,0.00595312,0.61551,1.78737,-1.79804,1.2,0.338899,-3.44053,1.31923,-1.22289,-0.868649,0,1.99315,3.28544
8.47339,0.652869,-0.289397,1.29849,0.420853,-0.011831,0.611476,1.75026,-1.82272,1.2,0.330631,-3.5429,1.2672,-1.27338,-0.792777,0,1.88813,3.42664
8.50517,0.714998,-0.37589,1.28961,0.373783,-0.0472918,0.603047,1.66867,-1.86738,1.2,0.326856,-3.66207,1.11344,-1.35145,-0.650824,0,1.77259,3.62272
8.5411,0.778882,-0.465157,1.28085,0.321244,-0.0820262,0.594036,1.57807,-1.90577,1.2,0.319433,-3.76621,0.93384,-1.406,-0.522654,0,1.64943,3.79076
8.5733,0.843942,-0.557023,1.27249,0.292745,-0.098921,0.589393,1.52976,-1.92258,1.2,0.289305,-3.82701,0.852727,-1.4266,-0.463471,0,1.52981,3.87103
8.60588,0.909544,-0.651284,1.26492,0.22677,-0.135078,0.578504,1.42796,-1.95131,1.2,0.27256,-3.89513,0.626922,-1.45769,-0.353734,0,1.40108,3.99103
8.64206,0.991395,-0.771946,1.25708,0.16891,-0.164633,0.568578,1.32041,-1.97346,1.2,0.233423,-3.92605,0.449363,-1.47844,-0.253395,0,1.24706,4.07686
8.67378,1.05587,-0.870354,1.25241,0.128643,-0.183866,0.561901,1.26495,-1.98205,1.2,0.18702,-3.92225,0.341522,-1.48579,-0.205974,0,1.1324,4.0897
8.70553,1.12138,-0.963852,1.24985,0.0665196,-0.213142,0.551555,1.15085,-1.99427,1.2,0.152209,-3.89505,0.147644,-1.49563,-0.114438,0,1.03204,4.12676
8.74137,1.18531,-1.05656,1.24899,-0.00455737,-0.245912,0.53989,1.03609,-1.99967,1.2,0.115752,-3.8395,-0.0707759,-1.49976,-0.0270826,0,0.956106,4.14119
8.77364,1.24608,-1.15006,1.24979,-0.0409168,-0.262221,0.533916,0.977977,-1.99988,1.2,0.0549446,-3.76277,-0.138531,-1.49991,0.0165213,0,0.892495,4.08898
8.80586,1.30313,-1.2438,1.25211,-0.119955,-0.298606,0.52071,0.862343,-1.99523,1.2,0.0120314,-3.65412,-0.363376,-1.49637,0.104231,0,0.872736,4.06602
8.84153,1.36833,-1.36053,1.2569,-0.188008,-0.33159,0.508387,0.748572,-1.98387,1.2,-0.0656842,-3.49621,-0.505028,-1.4873,0.194751,0,0.880847,3.98738
8.87324,1.41498,-1.45296,1.26202,-0.214099,-0.344667,0.503445,0.692849,-1.97568,1.2,-0.155082,-3.3667,-0.500017,-1.48038,0.241838,0,0.893621,3.87659
8.90527,1.45623,-1.54404,1.26797,-0.275354,-0.376937,0.490286,0.584712,-1.95432,1.2,-0.219554,-3.20495,-0.60933,-1.46068,0.341204,0,0.965657,3.80616
8.94101,1.49174,-1.63339,1.27457,-0.327777,-0.409104,0.476323,0.482159,-1.92638,1.2,-0.288299,-3.0417,-0.669454,-1.43101,0.449665,0,1.05388,3.73411
8.97309,1.5211,-1.72071,1.28159,-0.348543,-0.426533,0.46946,0.433395,-1.90997,1.2,-0.392011,-2.89361,-0.614266,-1.41132,0.50811,0,1.10705,3.60389
9.00492,1.54404,-1.8058,1.28876,-0.376257,-0.465235,0.457022,0.341789,-1.87234,1.2,-0.478695,-2.74539,-0.566543,-1.35912,0.634657,0,1.20736,3.53848
9.04077,1.56314,-1.90879,1.29767,-0.386493,-0.50735,0.444734,0.25904,-1.82841,1.2,-0.60901,-2.57646,-0.421408,-1.28428,0.775001,0,1.31022,3.44469
9.0729,1.5704,-1.98837,1.3046,-0.386502,-0.528665,0.438183,0.221328,-1.80412,1.2,-0.735252,-2.44537,-0.272666,-1.23583,0.850125,0,1.36561,3.34443
9.10469,1.58998,-2.07366,1.31058,-0.378923,-0.570194,0.423084,0.153902,-1.75102,1.2,-0.82914,-2.33801,-0.106939,-1.11133,1.00745,0,1.47603,3.35904
9.14048,1.60686,-2.15852,1.31601,-0.363126,-0.608033,0.404559,0.0978741,-1.69202,1.2,-0.919668,-2.2415,0.0747982,-0.943618,1.16601,0,1.5837,3.40842
9.17244,1.61426,-2.24035,1.32104,-0.353365,-0.624201,0.393454,0.0743662,-1.66037,1.2,-1.04926,-2.13876,0.238431,-0.842445,1.24108,0,1.64994,3.39455
9.20431,1.61236,-2.31934,1.32553,-0.333476,-0.650509,0.367684,0.0367663,-1.5929,1.2,-1.15046,-2.05779,0.407651,-0.609032,1.3708,0,1.73953,3.49492
9.24016,1.59732,-2.41442,1.32996,-0.31441,-0.669614,0.337786,0.012136,-1.52008,1.2,-1.2981,-1.96041,0.592055,-0.348682,1.45891,0,1.8247,3.59774
9.272,1.57547,-2.48763,1.33252,-0.30582,-0.676381,0.321621,0.0047889,-1.48172,1.2,-1.43935,-1.87962,0.72585,-0.216025,1.48436,0,1.86988,3.65236
9.30407,1.54512,-2.55835,1.33426,-0.292193,-0.68352,0.287692,0.00016471,-1.40132,1.2,-1.55776,-1.82918,0.840407,0.0381432,1.49951,0,1.93484,3.78595
9.34001,1.5065,-2.62655,1.33496,-0.284164,-0.681362,0.249071,0.00900519,-1.31613,1.2,-1.68586,-1.79698,0.921602,0.262627,1.47683,0,1.99446,3.91967
9.37186,1.45985,-2.69213,1.33478,-0.283061,-0.678081,0.234521,0.0184286,-1.27193,1.2,-1.83768,-1.7287,1.02106,0.360546,1.45602,0,2.02801,4.00215
9.40379,1.4055,-2.7549,1.33371,-0.286595,-0.6628,0.198479,0.0471601,-1.18028,1.2,-1.98219,-1.70485,1.05505,0.527806,1.40407,0,2.08384,4.13262
9.43974,1.32726,-2.82906,1.33127,-0.299797,-0.638241,0.162584,0.0887101,-1.08465,1.2,-2.171,-1.66367,1.08174,0.66013,1.34693,0,2.14341,4.2719
9.47241,1.25687,-2.88444,1.32877,-0.310239,-0.621763,0.14466,0.114125,-1.03545,1.2,-2.31676,-1.60131,1.12782,0.715023,1.31861,0,2.17743,4.35771
9.50426,1.20051,-2.94534,1.32663,-0.338841,-0.579718,0.108085,0.173818,-0.934448,1.2,-2.46246,-1.58143,1.05514,0.806097,1.26499,0,2.26138,4.46082
9.54027,1.14311,-3.00396,1.32501,-0.376776,-0.523478,0.0709351,0.244615,-0.830323,1.2,-2.61025,-1.54778,0.943153,0.876689,1.21713,0,2.35533,4.54896
9.57343,1.07826,-3.05627,1.32462,-0.403713,-0.483799,0.0480718,0.283898,-0.777181,1.2,-2.72759,-1.46429,0.928953,0.905751,1.19567,0,2.41677,4.59777
9.60553,1.0069,-3.10158,1.32602,-0.449205,-0.417096,0.0133453,0.369569,-0.668962,1.2,-2.85285,-1.37974,0.811447,0.95367,1.15781,0,2.51787,4.6462
9.64123,0.910414,-3.14753,1.33063,-0.507468,-0.326059,-0.0278672,0.463675,-0.558549,1.2,-2.98533,-1.2186,0.642065,0.990297,1.12664,0,2.63049,4.66026
9.67331,0.829118,-3.17548,1.33609,-0.528071,-0.290994,-0.042708,0.513553,-0.502573,1.2,-3.03532,-1.05208,0.649419,1.00509,1.11346,0,2.69491,4.62993
9.70519,0.745618,-3.19562,1.34241,-0.575586,-0.200213,-0.0785878,0.618019,-0.389436,1.2,-3.10047,-0.850506,0.432904,1.02864,1.09174,0,2.81269,4.58359
9.74097,0.661137,-3.20805,1.34903,-0.615891,-0.109086,-0.110497,0.727622,-0.274989,1.2,-3.12988,-0.603798,0.231769,1.04517,1.07593,0,2.9376,4.50624
9.77308,0.576577,-3.21293,1.35544,-0.633567,-0.0644891,-0.124537,0.783833,-0.217456,1.2,-3.11319,-0.374449,0.19904,1.05108,1.07015,0,3.00666,4.41221
9.805,0.492712,-3.21041,1.36121,-0.662125,0.0213239,-0.147852,0.898416,-0.101716,1.2,-3.07867,-0.0847115,0.0499414,1.05859,1.06272,0,3.1392,4.29372
9.84104,0.390114,-3.197,1.36722,-0.681181,0.101668,-0.164484,1,-4.89859e-16,1.2,-2.98519,0.266192,-0.0202386,0,0,0,3.25895,2.9971
9.87268,0.310663,-3.17811,1.37097,-0.687424,0.139708,-0.171002,1,-4.89859e-16,1.2,-2.88627,0.510928,0.0130346,0,0,0,3.2565,2.93118
9.90496,0.229354,-3.17545,1.37234,-0.692482,0.211292,-0.179106,1,-4.89859e-16,1.2,-2.7535,0.794895,-0.0278549,0,0,0,3.27217,2.86608
9.94039,0.150366,-3.17158,1.3725,-0.688775,0.275635,-0.179947,1,-4.89859e-16,1.2,-2.59562,1.06687,-0.0265226,0,0,0,3.28795,2.80644
9.9723,0.0759235,-3.15863,1.37201,-0.684042,0.30517,-0.179051,1,-4.89859e-16,1.2,-2.44278,1.27578,0.0639384,0,0,0,3.29552,2.75661
10.0043,0.00646493,-3.13687,1.37106,-0.670574,0.358552,-0.174387,1,-4.89859e-16,1.2,-2.2552,1.51628,0.119125,0,0,0,3.2949,2.72015
10.0411,-0.0727649,-3.09785,1.36948,-0.652019,0.403943,-0.166868,1,-4.89859e-16,1.2,-2.01943,1.76892,0.238603,0,0,0,3.28272,2.6952
10.0732,-0.129616,-3.05752,1.36795,-0.641316,0.423902,-0.16267,1,-4.89859e-16,1.2,-1.83722,1.93689,0.377242,0,0,0,3.26384,2.69615
10.1052,-0.180307,-3.00935,1.36636,-0.620065,0.459336,-0.154697,1,-4.89859e-16,1.2,-1.63086,2.11832,0.479395,0,0,0,3.23682,2.71603
10.1413,-0.224652,-2.9538,1.36469,-0.598056,0.489543,-0.148348,1,-4.89859e-16,1.2,-1.42677,2.28012,0.586059,0,0,0,3.20185,2.75283
10.1731,-0.262426,-2.89122,1.36292,-0.586993,0.503021,-0.146126,1,-4.89859e-16,1.2,-1.24135,2.41137,0.722114,0,0,0,3.15902,2.80662
10.2051,-0.293809,-2.82224,1.36053,-0.562445,0.52622,-0.142891,1,-4.89859e-16,1.2,-1.04533,2.5509,0.788625,0,0,0,3.10881,2.86735
10.241,-0.324716,-2.72831,1.35587,-0.527009,0.541983,-0.138017,1,-4.89859e-16,1.2,-0.81345,2.70839,0.828705,0,0,0,3.03692,2.94684
10.273,-0.343202,-2.64785,1.35019,-0.511404,0.544379,-0.135701,1,-4.89859e-16,1.2,-0.637653,2.81169,0.873349,0,0,0,2.97285,3.01247
10.305,-0.378502,-2.57808,1.34219,-0.464455,0.541841,-0.127154,1,-4.89859e-16,1.2,-0.467503,2.92368,0.807558,0,0,0,2.92694,3.06898
10.3409,-0.414576,-2.50839,1.33209,-0.407061,0.525167,-0.114458,1,-4.89859e-16,1.2,-0.301233,3.0272,0.703994,0,0,0,2.88279,3.12254
10.3728,-0.444243,-2.43431,1.32016,-0.368295,0.509372,-0.106595,1,-4.89859e-16,1.2,-0.152751,3.10112,0.638446,0,0,0,2.83305,3.16984
10.4046,-0.467836,-2.35643,1.30679,-0.306268,0.477462,-0.0958274,1,-4.89859e-16,1.2,-0.011013,3.17216,0.501295,0,0,0,2.77826,3.21155
10.4406,-0.489267,-2.25468,1.28885,-0.233256,0.431419,-0.0860509,1,-4.89859e-16,1.2,0.141939,3.23002,0.330388,0,0,0,2.70359,3.24997
10.4724,-0.50049,-2.17051,1.27414,-0.195761,0.404741,-0.0824726,1,-4.89859e-16,1.2,0.243217,3.24445,0.256821,0,0,0,2.63971,3.26367
10.5044,-0.506812,-2.08464,1.25977,-0.119043,0.346081,-0.0791723,1,-4.89859e-16,1.2,0.322982,3.24628,0.0461576,0,0,0,2.57289,3.26264
10.5403,-0.508747,-1.99777,1.24612,-0.0430303,0.282508,-0.0810699,1,-4.89859e-16,1.2,0.371498,3.2159,-0.170796,0,0,0,2.5039,3.24179
10.5722,-0.506917,-1.91059,1.23355,-0.00690614,0.250662,-0.0839596,1,-4.89859e-16,1.2,0.412139,3.16641,-0.249312,0,0,0,2.43357,3.20284
10.6043,-0.501984,-1.8238,1.22214,0.0591641,0.189243,-0.0923497,1,-4.89859e-16,1.2,0.416733,3.08773,-0.43982,0,0,0,2.36277,3.14661
10.6401,-0.492504,-1.71663,1.20932,0.114766,0.132934,-0.103867,1,-4.89859e-16,1.2,0.40529,2.97373,-0.587049,0,0,0,2.27475,3.0581
10.6719,-0.482911,-1.63251,1.19998,0.138264,0.108012,-0.109755,1,-4.89859e-16,1.2,0.402246,2.87798,-0.635424,0,0,0,2.20548,2.97461
10.7039,-0.481177,-1.54704,1.19064,0.176879,0.0652649,-0.12151,1,-4.89859e-16,1.2,0.36286,2.76674,-0.734772,0,0,0,2.1418,2.88555
10.7398,-0.480932,-1.46281,1.18158,0.205043,0.0312021,-0.131347,1,-4.89859e-16,1.2,0.323845,2.65312,-0.797074,0,0,0,2.08166,2.78913
10.7718,-0.479392,-1.38112,1.17285,0.215262,0.0176735,-0.135379,1,-4.89859e-16,1.2,0.302868,2.5469,-0.802148,0,0,0,2.02406,2.68736
10.8043,-0.4769,-1.3021,1.16431,0.230401,-0.00426657,-0.142463,1,-4.89859e-16,1.2,0.265616,2.43569,-0.819449,0,0,0,1.96926,2.58353
10.8403,-0.472938,-1.20726,1.15384,0.236805,-0.0157445,-0.145641,1,-4.89859e-16,1.2,0.235547,2.30274,-0.799252,0,0,0,1.90503,2.44885
10.8723,-0.4693,-1.13467,1.14575,0.239195,-0.0203786,-0.147174,1,-4.89859e-16,1.2,0.215824,2.19724,-0.770246,0,0,0,1.85722,2.33831
10.9042,-0.465363,-1.06507,1.138,0.24254,-0.0272021,-0.149688,1,-4.89859e-16,1.2,0.191268,2.0916,-0.744442,0,0,0,1.8126,2.22836
10.94,-0.461246,-0.998501,1.13055,0.242825,-0.0308775,-0.152054,1,-4.89859e-16,1.2,0.16969,1.99027,-0.70968,0,0,0,1.77118,2.11982
10.9722,-0.457039,-0.934976,1.12347,0.241852,-0.0320061,-0.153141,1,-4.89859e-16,1.2,0.1505,1.88932,-0.671858,0,0,0,1.73292,2.01086
11.004,-0.452856,-0.874459,1.11679,0.238593,-0.0346051,-0.156902,1,-4.89859e-16,1.2,0.124284,1.79448,-0.626413,0,0,0,1.69776,1.90473
11.0401,-0.447815,-0.803014,1.10919,0.235923,-0.0411651,-0.163336,1,-4.89859e-16,1.2,0.0877904,1.67641,-0.571856,0,0,0,1.65809,1.77344
11.0721,-0.444063,-0.749161,1.10376,0.23521,-0.0440228,-0.166411,1,-4.89859e-16,1.2,0.0641377,1.58279,-0.53229,0,0,0,1.62967,1.67113
11.104,-0.437305,-0.686965,1.0986,0.23147,-0.0512809,-0.174789,1,-4.89859e-16,1.2,0.0302401,1.50058,-0.492201,0,0,0,1.59626,1.57953
11.1399,-0.430172,-0.624735,1.09381,0.224279,-0.0569587,-0.183886,1,-4.89859e-16,1.2,-0.00438009,1.4247,-0.451888,0,0,0,1.56428,1.49466
11.1719,-0.42386,-0.566158,1.08939,0.219658,-0.0592662,-0.188682,1,-4.89859e-16,1.2,-0.0315293,1.34781,-0.414154,0,0,0,1.53628,1.41036
11.2039,-0.418449,-0.511104,1.0853,0.210881,-0.0628445,-0.198918,1,-4.89859e-16,1.2,-0.0674231,1.27389,-0.373358,0,0,0,1.51208,1.32918
11.2404,-0.412923,-0.446905,1.08072,0.20192,-0.0640645,-0.209963,1,-4.89859e-16,1.2,-0.105318,1.18105,-0.330044,0,0,0,1.48671,1.23081
11.2724,-0.409461,-0.399029,1.0773,0.196003,-0.0628594,-0.215648,1,-4.89859e-16,1.2,-0.13066,1.11325,-0.300984,0,0,0,1.46999,1.1606
11.3044,-0.406831,-0.353949,1.07413,0.182088,-0.0571178,-0.227341,1,-4.89859e-16,1.2,-0.159586,1.04948,-0.26465,0,0,0,1.45612,1.09404
11.3403,-0.404934,-0.311483,1.0712,0.163237,-0.0462042,-0.239009,1,-4.89859e-16,1.2,-0.181978,0.992973,-0.228777,0,0,0,1.4448,1.03511
11.3722,-0.403585,-0.27144,1.06854,0.151438,-0.0384201,-0.245146,1,-4.89859e-16,1.2,-0.19623,0.938898,-0.199222,0,0,0,1.43562,0.979656
11.4042,-0.402789,-0.233658,1.06622,0.125386,-0.0190888,-0.258987,1,-4.89859e-16,1.2,-0.215894,0.888625,-0.160966,0,0,0,1.42839,0.928534
11.4403,-0.402327,-0.189374,1.06378,0.10865,-0.00379106,-0.271722,1,-4.89859e-16,1.2,-0.226739,0.831964,-0.130016,0,0,0,1.4216,0.872055
11.4727,-0.402147,-0.155981,1.06226,0.10061,0.00405119,-0.279255,1,-4.89859e-16,1.2,-0.226753,0.795152,-0.106626,0,0,0,1.4175,0.833698
11.5046,-0.398543,-0.117305,1.0607,0.0824095,0.0212023,-0.294842,1,-4.89859e-16,1.2,-0.228249,0.764538,-0.0831216,0,0,0,1.41035,0.8022
11.5409,-0.393953,-0.0784381,1.05945,0.0612993,0.0411022,-0.311455,1,-4.89859e-16,1.2,-0.225742,0.739013,-0.0565837,0,0,0,1.40321,0.774791
11.5728,-0.389345,-0.0415973,1.05865,0.0504885,0.0513746,-0.320201,1,-4.89859e-16,1.2,-0.211885,0.718275,-0.0365339,0,0,0,1.39714,0.749766
11.6046,-0.384498,-0.00657238,1.05829,0.0289621,0.071443,-0.338397,1,-4.89859e-16,1.2,-0.202098,0.702294,-0.0135408,0,0,0,1.39175,0.730919
11.6405,-0.37779,0.0350096,1.05838,0.00643501,0.0916285,-0.359652,1,-4.89859e-16,1.2,-0.179633,0.6874,0.0105956,0,0,0,1.38549,0.710562
11.6726,-0.371653,0.06668,1.05887,-0.00144489,0.0985835,-0.36749,1,-4.89859e-16,1.2,-0.151689,0.681906,0.0286784,0,0,0,1.38051,0.699163
11.7044,-0.364634,0.097128,1.05975,-0.0193694,0.1142,-0.387403,1,-4.89859e-16,1.2,-0.127725,0.681178,0.0495657,0,0,0,1.37526,0.69482
11.7402,-0.356558,0.126426,1.06088,-0.0357791,0.128202,-0.407527,1,-4.89859e-16,1.2,-0.101112,0.681937,0.0683544,0,0,0,1.36952,0.692773
11.7727,-0.347346,0.154684,1.06223,-0.0439907,0.1344,-0.417909,1,-4.89859e-16,1.2,-0.0672051,0.687123,0.0812896,0,0,0,1.36318,0.695171
11.8046,-0.336956,0.182064,1.06369,-0.0589962,0.143864,-0.44039,1,-4.89859e-16,1.2,-0.0412737,0.6973,0.097094,0,0,0,1.35616,0.705236
11.8407,-0.32219,0.215212,1.06555,-0.0674352,0.147717,-0.457879,1,-4.89859e-16,1.2,0.000790859,0.712596,0.107792,0,0,0,1.34632,0.720703
11.8726,-0.308886,0.240875,1.06702,-0.0706576,0.148295,-0.467531,1,-4.89859e-16,1.2,0.0388714,0.727513,0.113288,0,0,0,1.33749,0.737306
11.9049,-0.297409,0.267106,1.06793,-0.0733189,0.146179,-0.486683,1,-4.89859e-16,1.2,0.0692513,0.744444,0.115861,0,0,0,1.33119,0.756582
11.9423,-0.282235,0.299331,1.0687,-0.0718695,0.14069,-0.505485,1,-4.89859e-16,1.2,0.102497,0.761356,0.113374,0,0,0,1.32324,0.776545
11.9745,-0.272069,0.318099,1.06912,-0.0692399,0.136006,-0.514734,1,-4.89859e-16,1.2,0.122539,0.771399,0.112058,0,0,0,1.31775,0.789069
12.0073,-0.257285,0.342471,1.06964,-0.0602289,0.124677,-0.533343,1,-4.89859e-16,1.2,0.145425,0.786874,0.105212,0,0,0,1.3096,0.807087
12.0423,-0.236996,0.371829,1.07034,-0.0507422,0.11397,-0.552331,1,-4.89859e-16,1.2,0.171366,0.79909,0.0986695,0,0,0,1.29816,0.823193
12.0741,-0.219546,0.394462,1.07098,-0.0454311,0.108493,-0.563891,1,-4.89859e-16,1.2,0.191165,0.806502,0.09643,0,0,0,1.28823,0.834439
12.1059,-0.201197,0.416345,1.07169,-0.0351781,0.0987008,-0.581535,1,-4.89859e-16,1.2,0.202501,0.81216,0.0875491,0,0,0,1.27776,0.84159
12.1418,-0.182084,0.437456,1.07242,-0.0179565,0.0835294,-0.603585,1,-4.89859e-16,1.2,0.207692,0.815961,0.0712943,0,0,0,1.26687,0.844992
12.1737,-0.157421,0.46273,1.07355,-0.00856372,0.0760302,-0.613887,1,-4.89859e-16,1.2,0.220849,0.81046,0.0675284,0,0,0,1.25289,0.842721
12.2054,-0.142382,0.477302,1.07437,0.0134148,0.0599308,-0.635692,1,-4.89859e-16,1.2,0.214451,0.806767,0.0487734,0,0,0,1.24444,0.836207
12.2412,-0.11712,0.500405,1.07593,0.0336852,0.0466055,-0.655826,1,-4.89859e-16,1.2,0.215118,0.788143,0.0345948,0,0,0,1.23035,0.817706
12.2731,-0.0969892,0.51777,1.07733,0.0449574,0.0404334,-0.667578,1,-4.89859e-16,1.2,0.214578,0.765587,0.0296904,0,0,0,1.21923,0.795644
12.3062,-0.0789907,0.534249,1.0788,0.0707562,0.0284593,-0.693492,1,-4.89859e-16,1.2,0.197608,0.740412,0.0124659,0,0,0,1.2101,0.766429
12.342,-0.0619345,0.549777,1.08035,0.0938238,0.0197221,-0.718153,1,-4.89859e-16,1.2,0.183099,0.711143,-0.000922125,0,0,0,1.20178,0.734337
12.3738,-0.0452782,0.564178,1.082,0.101253,0.0173675,-0.728173,1,-4.89859e-16,1.2,0.178748,0.67718,-0.00289322,0,0,0,1.19366,0.70038
12.406,-0.0290875,0.577486,1.08359,0.111192,0.0148875,-0.755644,1,-4.89859e-16,1.2,0.163398,0.64378,-0.0115721,0,0,0,1.18578,0.664293
12.4417,-0.00964793,0.592532,1.08545,0.109775,0.0173814,-0.778348,1,-4.89859e-16,1.2,0.153762,0.597913,-0.00857087,0,0,0,1.17627,0.617427
12.4737,0.00524714,0.603277,1.08685,0.106873,0.0199182,-0.791077,1,-4.89859e-16,1.2,0.150601,0.560983,-0.00706371,0,0,0,1.16888,0.580889
12.5055,0.0195469,0.612934,1.08817,0.0992117,0.0266099,-0.81706,1,-4.89859e-16,1.2,0.141529,0.528396,-7.06147e-05,0,0,0,1.16167,0.547021
12.5419,0.0333737,0.621576,1.08951,0.0848754,0.0344813,-0.843272,1,-4.89859e-16,1.2,0.135411,0.5019,0.0109407,0,0,0,1.15453,0.519961
12.5736,0.0468766,0.629294,1.09088,0.0732159,0.0391459,-0.85642,1,-4.89859e-16,1.2,0.140133,0.477432,0.0196094,0,0,0,1.14733,0.497959
12.6055,0.0602017,0.636093,1.09235,0.0464286,0.0487894,-0.883005,1,-4.89859e-16,1.2,0.139929,0.458438,0.035863,0,0,0,1.13992,0.480657
12.6415,0.0768053,0.643475,1.09418,0.021183,0.0574533,-0.910323,1,-4.89859e-16,1.2,0.145167,0.44486,0.0511409,0,0,0,1.13029,0.470733
12.6736,0.0902781,0.648635,1.09586,0.00756827,0.0615795,-0.92395,1,-4.89859e-16,1.2,0.156318,0.440525,0.0646905,0,0,0,1.12213,0.471892
12.7055,0.105378,0.65505,1.09763,-0.0242233,0.0679011,-0.951789,1,-4.89859e-16,1.2,0.159748,0.445221,0.0835822,0,0,0,1.11352,0.480341
12.7414,0.121296,0.661435,1.09952,-0.0558325,0.0709948,-0.979127,1,-4.89859e-16,1.2,0.165436,0.454609,0.101066,0,0,0,1.10441,0.494219
12.7732,0.137787,0.667247,1.10135,-0.0709142,0.0710884,-0.995255,1,-4.89859e-16,1.2,0.177647,0.468881,0.107051,0,0,0,1.0947,0.512706
12.805,0.155026,0.672557,1.10315,-0.0873683,0.068935,-1.0211,1,-4.89859e-16,1.2,0.185326,0.491264,0.116434,0,0,0,1.08429,0.537813
12.841,0.177756,0.678715,1.10532,-0.0971166,0.0651479,-1.04332,1,-4.89859e-16,1.2,0.19681,0.524214,0.120301,0,0,0,1.07038,0.572719
12.8731,0.197023,0.683324,1.10696,-0.102174,0.0627612,-1.05535,1,-4.89859e-16,1.2,0.207254,0.554273,0.125127,0,0,0,1.05847,0.604838
12.9049,0.217332,0.687806,1.10858,-0.113148,0.057806,-1.078,1,-4.89859e-16,1.2,0.208349,0.587573,0.133585,0,0,0,1.04595,0.637571
12.9422,0.238651,0.69221,1.11026,-0.123256,0.053458,-1.0996,1,-4.89859e-16,1.2,0.207655,0.621498,0.144075,0,0,0,1.03289,0.670923
12.9744,0.261012,0.696602,1.11194,-0.128057,0.051555,-1.11016,1,-4.89859e-16,1.2,0.212668,0.656414,0.148785,0,0,0,1.01937,0.705864
13.0062,0.284408,0.700941,1.11349,-0.133089,0.0477325,-1.13219,1,-4.89859e-16,1.2,0.211234,0.689518,0.150473,0,0,0,1.00542,0.73668
13.0419,0.315131,0.706279,1.11517,-0.131668,0.0447847,-1.14932,1,-4.89859e-16,1.2,0.213318,0.73529,0.14958,0,0,0,0.987457,0.780083
13.0738,0.340828,0.710563,1.11633,-0.129946,0.0438171,-1.15834,1,-4.89859e-16,1.2,0.215754,0.767049,0.146705,0,0,0,0.972835,0.810208
13.1058,0.363849,0.713812,1.11679,-0.123039,0.0413407,-1.1756,1,-4.89859e-16,1.2,0.208701,0.795526,0.139519,0,0,0,0.95976,0.834196
13.1418,0.386756,0.716847,1.11703,-0.108256,0.0370699,-1.19159,1,-4.89859e-16,1.2,0.202827,0.82229,0.124592,0,0,0,0.947006,0.856051
13.1738,0.410714,0.719875,1.11725,-0.100092,0.0347125,-1.19928,1,-4.89859e-16,1.2,0.205075,0.844054,0.119708,0,0,0,0.933984,0.87682
13.2056,0.43564,0.722911,1.11755,-0.0855391,0.0322078,-1.21425,1,-4.89859e-16,1.2,0.199455,0.866141,0.107687,0,0,0,0.920815,0.89531
13.2414,0.467822,0.726578,1.11789,-0.071864,0.0315705,-1.22919,1,-4.89859e-16,1.2,0.196072,0.881899,0.0954265,0,0,0,0.904363,0.908458
13.2735,0.494178,0.729371,1.11816,-0.0641116,0.0316162,-1.23665,1,-4.89859e-16,1.2,0.197162,0.889803,0.0879329,0,0,0,0.891367,0.915617
13.3052,0.521015,0.731975,1.1185,-0.0490026,0.033057,-1.25136,1,-4.89859e-16,1.2,0.192588,0.900121,0.0756604,0,0,0,0.878553,0.923598
13.341,0.548221,0.734415,1.1189,-0.0350928,0.0353725,-1.26618,1,-4.89859e-16,1.2,0.184009,0.901549,0.0649589,0,0,0,0.866053,0.922426
13.373,0.575531,0.736622,1.11954,-0.0265088,0.0358046,-1.27357,1,-4.89859e-16,1.2,0.184827,0.895752,0.0650769,0,0,0,0.853967,0.916933
13.405,0.602834,0.738568,1.12039,-0.00351623,0.03502,-1.28841,1,-4.89859e-16,1.2,0.178296,0.889543,0.0495635,0,0,0,0.842355,0.908588
13.4409,0.636705,0.740486,1.12173,0.0266646,0.0326942,-1.30527,1,-4.89859e-16,1.2,0.17347,0.872915,0.0278436,0,0,0,0.82851,0.890419
13.4734,0.663356,0.741618,1.12296,0.0378705,0.031767,-1.31161,1,-4.89859e-16,1.2,0.173415,0.851335,0.0203858,0,0,0,0.818084,0.869056
13.5054,0.688308,0.74216,1.12411,0.0646759,0.0301551,-1.3275,1,-4.89859e-16,1.2,0.166472,0.823537,-0.000272119,0,0,0,0.808525,0.840194
13.5412,0.712116,0.742191,1.12537,0.0895496,0.0289215,-1.34401,1,-4.89859e-16,1.2,0.157922,0.788396,-0.0152746,0,0,0,0.799559,0.804202
13.5732,0.734945,0.741856,1.12674,0.102207,0.0278954,-1.35281,1,-4.89859e-16,1.2,0.156572,0.746461,-0.0187945,0,0,0,0.791184,0.762937
13.605,0.756616,0.741046,1.12808,0.124869,0.0254457,-1.3707,1,-4.89859e-16,1.2,0.1478,0.70129,-0.0310073,0,0,0,0.783299,0.717366
13.6415,0.781856,0.739462,1.1297,0.141159,0.0233955,-1.38911,1,-4.89859e-16,1.2,0.143875,0.640816,-0.0373246,0,0,0,0.774166,0.657829
13.6728,0.800458,0.737653,1.13095,0.147241,0.0223146,-1.39855,1,-4.89859e-16,1.2,0.142795,0.590034,-0.0352425,0,0,0,0.767278,0.608089
13.7054,0.817629,0.735483,1.13211,0.154309,0.0200893,-1.41809,1,-4.89859e-16,1.2,0.136345,0.539787,-0.0382501,0,0,0,0.760792,0.558053
13.7412,0.833338,0.732916,1.13312,0.149154,0.0178429,-1.43812,1,-4.89859e-16,1.2,0.129804,0.493547,-0.0364125,0,0,0,0.754596,0.511628
13.7732,0.847764,0.730067,1.13394,0.140761,0.0171285,-1.44812,1,-4.89859e-16,1.2,0.128419,0.451379,-0.0326349,0,0,0,0.74869,0.470425
13.8051,0.860982,0.727,1.13458,0.115048,0.0164899,-1.46809,1,-4.89859e-16,1.2,0.122413,0.41294,-0.0242134,0,0,0,0.743057,0.431382
13.8409,0.876023,0.722886,1.13522,0.0810581,0.0166805,-1.48983,1,-4.89859e-16,1.2,0.118191,0.375955,-0.00964345,0,0,0,0.736295,0.394213
13.873,0.887199,0.719422,1.13577,0.0673617,0.0172144,-1.49767,1,-4.89859e-16,1.2,0.119989,0.354552,-0.00141544,0,0,0,0.731038,0.374308
13.9052,0.902278,0.715586,1.13605,0.0315809,0.0184691,-1.51738,1,-4.89859e-16,1.2,0.117663,0.343155,0.0118146,0,0,0,0.725054,0.362959
13.9409,0.918162,0.711598,1.13626,0.000947671,0.0192963,-1.5362,1,-4.89859e-16,1.2,0.114656,0.339551,0.0239029,0,0,0,0.719119,0.359182
13.9738,0.933572,0.707522,1.13657,-0.01245,0.0186763,-1.54751,1,-4.89859e-16,1.2,0.114468,0.340698,0.027855,0,0,0,0.71346,0.360491
14.0051,0.948707,0.703374,1.13684,-0.0271752,0.0163701,-1.56601,1,-4.89859e-16,1.2,0.112152,0.346801,0.0344695,0,0,0,0.708064,0.366111
14.0417,0.96751,0.698107,1.13721,-0.0345649,0.013338,-1.58202,1,-4.89859e-16,1.2,0.10797,0.360012,0.0367623,0,0,0,0.701678,0.377647
14.0736,0.98256,0.693866,1.13754,-0.0384027,0.0115948,-1.59235,1,-4.89859e-16,1.2,0.10759,0.368417,0.0394176,0,0,0,0.69689,0.385825
14.1055,0.997594,0.689517,1.13791,-0.0408112,0.00886208,-1.60747,1,-4.89859e-16,1.2,0.104163,0.379578,0.0399785,0,0,0,0.692311,0.395636
14.1413,1.01271,0.685115,1.13834,-0.0394433,0.00676645,-1.62341,1,-4.89859e-16,1.2,0.100206,0.391879,0.0389786,0,0,0,0.688002,0.406362
14.1739,1.02794,0.680645,1.13876,-0.0383991,0.0059084,-1.63142,1,-4.89859e-16,1.2,0.0981302,0.405585,0.0392448,0,0,0,0.683966,0.419129
14.2054,1.04332,0.676171,1.13919,-0.0389826,0.00576962,-1.64874,1,-4.89859e-16,1.2,0.0910441,0.417314,0.0414518,0,0,0,0.680281,0.429136
14.2418,1.06274,0.67058,1.13989,-0.04054,0.0086779,-1.66443,1,-4.89859e-16,1.2,0.0834475,0.430968,0.0454421,0,0,0,0.676185,0.441319
14.2733,1.07832,0.666148,1.1405,-0.0403375,0.00963377,-1.6708,1,-4.89859e-16,1.2,0.0802143,0.435328,0.0460487,0,0,0,0.67337,0.445046
14.3061,1.09127,0.66092,1.14078,-0.0329918,0.0095012,-1.68625,1,-4.89859e-16,1.2,0.075397,0.438565,0.0455211,0,0,0,0.669816,0.447321
